City_ID,City,Lat,Lng,Max Temp,Humidity,Cloudiness,Wind Speed,Country,Date
0,altamont,42.2068,-121.7372,11.91,35,0,5.66,US,1711923513
1,grytviken,-54.2811,-36.5092,-2.76,73,11,3.51,GS,1711923425
2,blackmans bay,-43.0167,147.3167,12.63,92,99,0.48,AU,1711923423
3,isafjordur,66.0755,-23.124,-5.75,78,98,9.89,IS,1711923425
4,contai,21.7786,87.7536,27.11,68,1,4.24,IN,1711923513
5,chonchi,-42.6128,-73.8092,10.56,73,27,0.86,CL,1711923395
6,savanna-la-mar,18.219,-78.1332,29.96,68,59,1.47,JM,1711923514
7,lubang,13.8584,120.124,27.07,84,64,7.12,PH,1711923514
8,mejit,10.2753,170.8646,27.11,79,54,8.88,MH,1711923514
9,ushtobe,45.2514,77.9838,3.05,65,8,3.03,KZ,1711923514
10,tiszafoldvar,46.9833,20.25,18.39,54,0,3.09,HU,1711923514
11,yellowknife,62.456,-114.3525,-0.33,61,100,8.49,CA,1711923431
12,adamstown,-25.066,-130.1015,23.28,69,100,12.4,PN,1711923423
13,thompson,55.7435,-97.8558,-5.31,80,100,0.93,CA,1711923436
14,port-aux-francais,-49.35,70.2167,4.33,92,100,4.84,TF,1711923427
15,bethel,41.3712,-73.414,14.47,38,100,3.68,US,1711923399
16,olonkinbyen,70.9221,-8.7187,-9.17,73,100,10.89,SJ,1711923422
17,albany,42.6001,-73.9662,11.23,49,64,0.89,US,1711923268
18,port elizabeth,-33.918,25.5701,21.29,69,70,4.47,ZA,1711923248
19,zinjibar,13.1287,45.3807,26.79,80,87,8.49,YE,1711923516
20,novyy turtkul',41.55,61.0167,6.95,28,100,3.59,UZ,1711923516
21,alexandria,31.2156,29.9553,19.09,77,48,4.51,EG,1711923302
22,sidmouth,50.6909,-3.2397,8.88,94,75,4.12,GB,1711923516
23,keflavik,64.0049,-22.5624,-2.76,63,100,12.35,IS,1711923457
24,iqaluit,63.7506,-68.5145,0.39,80,100,10.73,CA,1711923420
25,enewetak,11.3474,162.3373,27.32,80,95,8.68,MH,1711923436
26,sovetskiy,61.3614,63.5842,-1.17,87,100,4.47,RU,1711923516
27,poronaysk,49.2167,143.1167,0.19,77,77,3.08,RU,1711923416
28,egilsstadir,65.2653,-14.3948,-4.11,84,100,8.9,IS,1711923442
29,puerto baquerizo moreno,-0.9,-89.6,28.55,74,20,3.09,EC,1711923517
30,hawaiian paradise park,19.5933,-154.9731,25.49,76,75,4.63,US,1711923421
31,waitangi,-43.9535,-176.5597,14.9,96,99,1.34,NZ,1711923421
32,ribeira grande,38.5167,-28.7,15.43,77,100,4.92,PT,1711923423
33,hermanus,-34.4187,19.2345,18.22,79,98,7.0,ZA,1711923434
34,east london,-33.0153,27.9116,24.9,72,76,5.72,ZA,1711923517
35,lebu,-37.6167,-73.65,12.98,71,100,6.41,CL,1711923389
36,port mathurin,-19.6833,63.4167,26.99,82,100,3.59,MU,1711923439
37,horodok,49.1637,26.5839,15.89,64,74,3.98,UA,1711923518
38,maintirano,-18.0667,44.0167,26.55,80,7,2.6,MG,1711923518
39,filey,54.21,-0.2892,7.66,91,100,3.13,GB,1711923518
40,edinburgh of the seven seas,-37.0676,-12.3116,17.06,70,91,6.15,SH,1711923441
41,longyearbyen,78.2186,15.6401,-21.09,65,20,0.51,SJ,1711923199
42,mount gambier,-37.8333,140.7667,16.6,67,100,1.57,AU,1711923463
43,st. john's,47.5649,-52.7093,3.87,81,40,4.12,CA,1711923143
44,batikent,39.9683,32.7308,17.41,54,0,1.54,TR,1711923519
45,dudinka,69.4058,86.1778,-29.62,100,86,1.79,RU,1711923428
46,ushuaia,-54.8,-68.3,5.81,65,75,8.23,AR,1711923429
47,alofi,-19.0595,-169.9187,29.94,74,40,6.17,NU,1711923444
48,kui buri,12.0828,99.8543,25.66,69,23,2.5,TH,1711923519
49,hithadhoo,-0.6,73.0833,28.91,71,45,1.57,MV,1711923461
50,takoradi,4.8845,-1.7554,28.08,83,99,3.04,GH,1711923289
51,antsiranana,-12.2787,49.2917,25.05,93,42,2.88,MG,1711923473
52,al burayqah,30.4062,19.5739,23.05,31,10,5.04,LY,1711923520
53,namibe,-15.1961,12.1522,24.28,70,99,3.8,AO,1711923456
54,invercargill,-46.4,168.35,10.01,96,36,0.77,NZ,1711923438
55,porto novo,6.4965,2.6036,28.69,81,100,4.52,BJ,1711923302
56,lihue,21.9789,-159.3672,25.77,67,75,5.14,US,1711923435
57,acarau,-2.8856,-40.12,24.6,87,100,0.8,BR,1711923469
58,lorengau,-2.0226,147.2712,27.91,82,100,2.29,PG,1711923492
59,prince george,53.9166,-122.753,10.14,54,100,2.24,CA,1711923311
60,atafu village,-8.5421,-172.5159,29.44,76,99,5.98,TK,1711923429
61,badger,64.8,-147.5333,4.99,53,100,7.2,US,1711923440
62,avarua,-21.2078,-159.775,30.03,70,75,7.2,CK,1711923521
63,whitehorse,60.7161,-135.0538,3.9,32,75,11.32,CA,1711923522
64,ust-nera,64.5667,143.2,-16.94,98,90,0.66,RU,1711923472
65,chiba,35.6047,140.1233,13.94,93,100,6.53,JP,1711923492
66,margaret river,-33.95,115.0667,10.41,82,0,4.65,AU,1711923425
67,anadyr,64.75,177.4833,-24.72,68,0,6.0,RU,1711923420
68,buala,-8.145,159.5921,27.59,83,84,2.13,SB,1711923522
69,masterton,-40.9597,175.6575,16.05,63,39,1.16,NZ,1711923523
70,arica,-18.475,-70.3042,24.75,79,100,1.97,CL,1711923300
71,ilulissat,69.2167,-51.1,-3.99,74,75,4.12,GL,1711923435
72,pudasjarvi,65.3833,26.9167,-0.08,99,100,3.01,FI,1711923523
73,bilibino,68.0546,166.4372,-27.82,92,51,0.73,RU,1711923423
74,karratha,-20.7377,116.8463,28.12,58,0,3.12,AU,1711923523
75,iskateley,67.6803,53.1512,-8.32,87,98,3.58,RU,1711923428
76,rikaze,29.25,88.8833,2.82,30,0,1.04,CN,1711923524
77,udachny,66.4167,112.4,-14.98,97,91,3.18,RU,1711923433
78,belaya kholunitsa,58.84,50.8528,1.59,91,100,3.56,RU,1711923524
79,paramonga,-10.6667,-77.8333,23.92,78,18,5.17,PE,1711923524
80,klyuchi,52.2667,79.1667,2.71,88,99,3.79,RU,1711923432
81,rongelap,11.1635,166.8941,27.2,73,100,8.57,MH,1711923524
82,sultanah,24.4926,39.5857,23.25,40,0,5.14,SA,1711923524
83,petropavlovsk-kamchatsky,53.0452,158.6483,-0.67,88,100,4.47,RU,1711923308
84,bredasdorp,-34.5322,20.0403,17.71,73,89,6.73,ZA,1711923435
85,abra pampa,-22.7205,-65.697,17.18,33,46,4.39,AR,1711923525
86,razumnoye,50.5344,36.6846,15.37,41,0,4.0,RU,1711923436
87,jamestown,42.097,-79.2353,8.34,79,100,1.54,US,1711923200
88,mao,39.8885,4.2658,15.31,94,40,4.12,ES,1711923249
89,talcahuano,-36.7167,-73.1167,15.82,55,0,6.17,CL,1711923525
90,aasiaat,68.7098,-52.8699,-3.37,92,100,2.9,GL,1711923470
91,hamilton,39.1834,-84.5333,20.14,75,100,2.06,US,1711923323
92,gadzhiyevo,69.2551,33.3362,-11.83,93,82,3.49,RU,1711923494
93,puerto natales,-51.7236,-72.4875,7.31,77,100,4.62,CL,1711923424
94,papatowai,-46.5619,169.4708,11.92,69,76,0.56,NZ,1711923427
95,lata,40.1629,-8.3327,6.07,96,19,2.52,PT,1711923468
96,touros,-5.1989,-35.4608,25.5,91,60,4.8,BR,1711923422
97,naze,28.3667,129.4833,15.51,83,86,3.37,JP,1711923526
98,saynshand,44.8824,110.1163,4.76,41,92,2.39,MN,1711923526
99,la passe,45.5549,-0.8967,10.55,82,100,4.23,FR,1711923486
100,karachi,24.9056,67.0822,24.9,36,96,1.54,PK,1711923167
101,mpanda,-6.3655,31.0409,19.02,98,94,0.77,TZ,1711923527
102,arraial do cabo,-22.9661,-42.0278,23.92,88,0,3.09,BR,1711923498
103,general villegas,-35.0328,-63.0125,18.39,48,100,5.36,AR,1711923527
104,nuuk,64.1835,-51.7216,1.34,55,20,7.72,GL,1711923448
105,tindouf,27.6711,-8.1474,20.25,40,0,4.63,DZ,1711923527
106,douglas,41.3,-96.167,14.6,55,100,6.69,US,1711923240
107,esquel,-42.9,-71.3167,11.13,52,1,3.28,AR,1711923247
108,constantia,44.1833,28.65,12.38,63,69,3.97,RO,1711923276
109,port alfred,-33.5906,26.891,18.99,89,53,2.68,ZA,1711923450
110,redencao,-4.2258,-38.7306,23.44,95,100,0.83,BR,1711923243
111,afaahiti,-17.75,-149.2833,27.93,85,100,11.09,PF,1711923423
112,kristiansund,63.1115,7.732,5.36,93,100,3.09,NO,1711923463
113,la foa,-21.7108,165.8276,25.73,56,1,1.54,NC,1711923528
114,vila velha,-20.3297,-40.2925,25.53,87,40,5.14,BR,1711923528
115,saipan,15.1355,145.701,26.39,89,75,6.17,MP,1711923427
116,rawatbhata,24.9333,75.5833,24.14,25,29,2.95,IN,1711923529
117,balaklava,44.5,33.6,15.21,39,75,5.48,UA,1711923529
118,utrik,11.2278,169.8474,27.02,76,37,8.41,MH,1711923467
119,tocopilla,-22.092,-70.1979,21.97,72,20,2.94,CL,1711923529
120,punta arenas,-53.15,-70.9167,7.06,70,75,6.17,CL,1711923202
121,kuhdasht,33.535,47.6061,12.81,42,1,1.97,IR,1711923529
122,tofol,5.3248,163.0078,28.88,79,100,6.17,FM,1711923530
123,howrah,22.5892,88.3103,29.0,79,20,4.12,IN,1711923530
124,west island,-12.1568,96.8225,26.99,89,100,5.66,CC,1711923422
125,totoras,-32.5844,-61.1685,18.88,93,100,4.41,AR,1711923530
126,miandrivazo,-19.5167,45.4667,26.16,80,83,0.43,MG,1711923530
127,college,64.8569,-147.8028,5.04,55,100,7.2,US,1711923354
128,san patricio,28.017,-97.5169,28.42,68,100,7.42,US,1711923493
129,tayshet,55.9342,98.0044,-2.03,83,98,5.45,RU,1711923530
130,wailua homesteads,22.0669,-159.378,25.44,67,75,5.14,US,1711923425
131,saldanha,-33.0117,17.9442,17.1,81,95,3.03,ZA,1711923464
132,taourirt,34.4073,-2.8973,13.87,71,52,1.04,MA,1711923531
133,talnakh,69.4865,88.3972,-26.85,100,89,2.71,RU,1711923422
134,labrador city,52.9463,-66.9114,-5.46,72,100,1.34,CA,1711923313
135,dunedin,-45.8742,170.5036,12.67,76,99,0.89,NZ,1711923253
136,stanley,54.868,-1.6985,6.77,91,20,4.63,GB,1711923432
137,montpelier,44.2601,-72.5754,9.51,38,0,4.12,US,1711923532
138,kedrovyy,56.1667,91.8167,-2.76,87,94,3.86,RU,1711923532
139,mazamari,-11.3258,-74.5308,24.28,96,99,0.38,PE,1711923532
140,barra de santo antonio,-9.4047,-35.5072,27.6,83,10,2.46,BR,1711923532
141,berdigestyakh,62.0989,126.6992,-28.11,100,100,1.02,RU,1711923449
142,susuman,62.7833,148.1667,-15.57,94,81,1.34,RU,1711923465
143,embi,48.8264,58.1442,-0.11,87,14,2.37,KZ,1711923533
144,papao,-17.75,-149.55,28.82,86,98,12.16,PF,1711923320
145,price,39.5994,-110.8107,10.06,31,100,7.2,US,1711923533
146,melekeok village,7.4957,134.6367,27.31,78,75,4.12,PW,1711923533
147,mersa matruh,31.3525,27.2453,18.61,75,0,2.52,EG,1711923534
148,polyarnyy,69.1989,33.4478,-11.2,92,81,3.67,RU,1711923424
149,sao bento do sul,-26.2503,-49.3786,21.24,98,82,1.07,BR,1711923534
150,hasaki,35.7333,140.8333,12.38,84,100,11.59,JP,1711923460
151,fort bragg,35.139,-79.006,28.41,33,0,4.63,US,1711923228
152,juan de herrera,18.874,-71.2383,27.45,50,44,4.0,DO,1711923534
153,flying fish cove,-10.4217,105.6791,25.82,83,40,3.6,CX,1711923535
154,potsdam,52.3989,13.0657,13.34,94,80,1.46,DE,1711923535
155,joshimath,30.5667,79.5667,7.41,58,63,3.9,IN,1711923535
156,port douglas,-16.4833,145.4667,25.52,80,88,4.49,AU,1711923489
157,kayenta,36.7278,-110.2546,9.21,34,54,9.82,US,1711923535
158,saint-francois,46.4154,3.9054,9.69,89,100,0.51,FR,1711923535
159,al kharijah,25.4514,30.5464,24.8,28,0,3.0,EG,1711923535
160,vilyuchinsk,52.9306,158.4028,0.15,96,100,2.42,RU,1711923469
161,sungai penuh,-2.0833,101.3833,18.59,96,85,1.3,ID,1711923536
162,isangel,-19.55,169.2667,26.41,60,1,4.31,VU,1711923489
163,langtoucun,40.0261,124.3286,3.78,51,12,1.07,CN,1711923536
164,quellon,-43.1167,-73.6167,10.06,69,16,2.66,CL,1711923494
165,bida,9.0833,6.0167,32.98,36,100,2.36,NG,1711923536
166,balykshi,47.0667,51.8667,5.0,81,0,3.0,KZ,1711923537
167,gamba,-2.65,10.0,25.98,89,100,0.55,GA,1711923537
168,kapuskasing,49.4169,-82.4331,1.87,79,100,1.8,CA,1711923437
169,wotho,10.1657,166.0102,27.23,80,100,8.9,MH,1711923537
170,qui nhon,13.7667,109.2333,24.45,86,13,2.49,VN,1711923537
171,miquelon,47.0975,-56.3814,0.0,76,61,7.42,PM,1711923537
172,uturoa,-16.7333,-151.4333,28.78,77,35,8.98,PF,1711923445
173,vorkuta,67.5,64.0,-8.24,95,100,4.52,RU,1711923323
174,tura,25.5198,90.2201,21.25,94,79,3.46,IN,1711923484
175,itaituba,-4.2761,-55.9836,27.28,78,46,0.83,BR,1711923531
176,mugia,43.1041,-9.2179,11.06,76,59,10.07,ES,1711923538
177,illapel,-31.6308,-71.1653,24.94,35,0,2.68,CL,1711923290
178,callao,-12.0667,-77.15,25.16,69,0,7.2,PE,1711923469
179,marat,25.0701,45.4615,19.01,77,97,6.8,SA,1711923538
180,puerto princesa,9.7392,118.7353,25.99,83,20,2.06,PH,1711923538
181,geraldton,-28.7667,114.6,20.23,64,63,6.69,AU,1711923448
182,malango,-2.9627,119.9001,20.7,97,100,0.61,ID,1711923539
183,kailua-kona,19.6406,-155.9956,26.95,81,20,6.17,US,1711923452
184,ceylanpinar,36.8472,40.05,16.62,56,0,2.08,TR,1711923539
185,puruliya,23.3333,86.3667,27.23,45,0,3.24,IN,1711923539
186,parun,35.4207,70.9221,-5.49,58,30,4.99,AF,1711923539
187,nemuro,43.3236,145.575,0.67,77,3,4.26,JP,1711923255
188,hasilpur,29.7122,72.5553,20.35,42,96,3.39,PK,1711923540
189,sinabang,2.4803,96.3801,26.44,85,92,0.22,ID,1711923457
190,pandan,14.0453,124.1694,25.68,86,100,3.67,PH,1711923540
191,manokwari,-0.8667,134.0833,26.51,79,98,0.74,ID,1711923540
192,chernyshevskiy,63.0128,112.4714,-27.23,100,100,1.15,RU,1711923540
193,taltal,-25.4,-70.4833,20.74,74,23,2.48,CL,1711923540
194,nova sintra,14.8667,-24.7167,18.94,75,2,9.6,CV,1711923469
195,mumbwa,-14.9783,27.0619,20.14,59,72,3.24,ZM,1711923541
196,ponta delgada,37.7333,-25.6667,14.4,54,20,4.63,PT,1711923541
197,porbandar,21.6422,69.6093,24.1,76,83,4.58,IN,1711923541
198,mawlaik,23.6333,94.4167,21.29,66,11,0.15,MM,1711923434
199,veraval,20.9,70.3667,23.8,74,48,5.14,IN,1711923426
200,hun,29.1268,15.9477,26.27,9,100,6.75,LY,1711923542
201,tiksi,71.6872,128.8694,-8.89,83,100,9.13,RU,1711923421
202,carnarvon,-24.8667,113.6333,25.26,53,65,6.74,AU,1711923466
203,ajaccio,42.0,8.9167,15.99,56,75,3.09,FR,1711923382
204,vikhorevka,56.1201,101.1636,-1.23,90,100,5.89,RU,1711923542
205,chos malal,-37.3781,-70.2709,18.06,37,100,4.5,AR,1711923542
206,bejaia,36.7559,5.0843,23.6,38,61,2.06,DZ,1711923542
207,cox's bazar,21.4532,91.9798,23.17,95,1,3.39,BD,1711923543
208,kolonia,50.9333,6.95,12.12,87,0,4.63,DE,1711923398
209,tukrah,32.5341,20.5791,21.59,27,0,4.77,LY,1711923543
210,bayanhongor,46.7167,100.1167,-2.97,80,74,1.89,MN,1711923439
211,kalmunai,7.4167,81.8167,26.36,80,25,0.34,LK,1711923476
212,mumford,5.2618,-0.759,28.3,82,100,4.37,GH,1711923543
213,arno,60.1167,18.6333,2.1,96,99,1.2,SE,1711923544
214,monterrey,25.6667,-100.3167,35.97,42,90,3.64,MX,1711923156
215,ingeniero guillermo n. juarez,-23.9,-61.85,31.69,49,59,3.7,AR,1711923544
216,lompoc,34.6391,-120.4579,17.4,63,100,6.69,US,1711923445
217,gaspe,48.8334,-64.4819,1.12,55,100,5.14,CA,1711923544
218,laizhou,37.1717,119.9214,8.23,53,71,3.44,CN,1711923544
219,codrington,-38.2667,141.9667,17.85,59,100,2.38,AU,1711923464
220,bamboo flat,11.7,92.7167,30.05,54,8,1.03,IN,1711923545
221,axim,4.8699,-2.2405,27.99,84,83,1.8,GH,1711923376
222,alice springs,-23.7,133.8833,20.75,100,100,2.57,AU,1711923263
223,vadso,70.0744,29.7487,-9.91,79,12,4.63,NO,1711923426
224,beledweyne,4.7358,45.2036,27.66,69,27,6.79,SO,1711923546
225,yangjiang,21.85,111.9667,24.69,93,96,2.65,CN,1711923546
226,fortuna,40.5982,-124.1573,15.19,71,100,7.72,US,1711923446
227,la sarre,48.8002,-79.1996,0.92,71,97,1.89,CA,1711923546
228,port lincoln,-34.7333,135.8667,15.49,89,75,3.63,AU,1711923427
229,the pas,53.8251,-101.2541,-1.99,50,100,0.0,CA,1711923494
230,ola,59.5833,151.2833,-3.94,76,98,4.73,RU,1711923474
231,tralee,52.2704,-9.7026,6.02,95,87,2.86,IE,1711923547
232,queenstown,-31.8976,26.8753,20.46,54,98,2.47,ZA,1711923310
233,severo-yeniseyskiy,60.3725,93.0408,-11.35,93,100,4.47,RU,1711923449
234,yuzhno-kurilsk,44.0306,145.8556,0.21,95,50,0.69,RU,1711923465
235,hadibu,12.65,54.0333,26.62,75,7,4.21,YE,1711923494
236,tutong,4.8,114.65,26.05,93,100,1.75,BN,1711923547
237,puerto ayora,-0.7393,-90.3518,28.98,91,65,5.36,EC,1711923434
238,guerrero negro,27.9769,-114.0611,17.61,61,100,4.05,MX,1711923491
239,kuching,1.55,110.3333,27.23,93,20,2.68,MY,1711923482
240,uglegorsk,49.0833,142.0333,-0.78,89,96,4.83,RU,1711923548
241,krylovskaya,46.3194,39.9711,12.94,57,5,2.69,RU,1711923548
242,discovery bay,37.9085,-121.6002,20.72,45,75,4.12,US,1711923548
243,farah,32.5,62.5,14.89,22,5,1.41,AF,1711923548
244,guanica,17.9716,-66.908,26.79,48,96,1.07,PR,1711923549
245,bikenibeu village,1.3673,173.1241,27.98,89,75,4.12,KI,1711923549
246,sanming,26.2486,117.6186,19.7,97,46,1.16,CN,1711923549
247,nguigmi,14.2495,13.1092,30.58,18,44,5.13,NE,1711923434
248,al fuwayliq,26.4432,43.2534,19.43,59,98,1.75,SA,1711923549
249,vernon,50.2581,-119.2691,15.16,29,58,0.78,CA,1711923477
250,buka,40.8108,69.1986,8.96,48,23,1.42,UZ,1711923454
251,hawera,-39.5917,174.2833,15.54,65,43,2.32,NZ,1711923550
252,uacu cungo,-11.3634,15.1208,18.59,95,99,0.63,AO,1711923550
253,kodiak,57.79,-152.4072,5.73,49,40,6.17,US,1711923406
254,kerikeri,-35.2268,173.9474,19.39,78,97,0.45,NZ,1711923389
255,rudnichnyy,59.617,52.4703,1.26,94,100,4.38,RU,1711923550
256,ishigaki,24.3448,124.1572,21.07,88,75,2.57,JP,1711923551
257,northwood,40.4728,-83.7324,19.13,42,0,1.1,US,1711923551
258,la ronge,55.1001,-105.2842,2.14,38,20,6.17,CA,1711923551
259,ujae,8.9322,165.7642,27.71,79,100,8.91,MH,1711923551
260,oued zem,32.8627,-6.5736,11.71,84,9,7.91,MA,1711923551
261,yaren,-0.5472,166.916,28.17,82,63,7.39,NR,1711923447
262,vuktyl,63.8567,57.3094,-0.5,100,100,3.58,RU,1711923552
263,okhotsk,59.3833,143.3,-4.58,80,100,2.23,RU,1711923430
264,levuka,50.1834,-105.4011,-0.1,56,100,2.74,CA,1711923552
265,brodnica,53.2597,19.3965,14.65,70,45,4.52,PL,1711923552
266,roma,43.2128,-75.4557,9.82,50,0,6.69,US,1711923156
267,san antonio de pale,-1.4014,5.6325,28.71,77,96,3.79,GQ,1711923441
268,lagoa,39.05,-27.9833,13.72,68,100,6.13,PT,1711923552
269,necochea,-38.5473,-58.7368,14.87,61,100,4.26,AR,1711923398
270,remire-montjoly,4.9167,-52.2667,27.02,89,75,1.03,GF,1711923553
271,mendig,50.3667,7.2833,11.47,84,80,3.07,DE,1711923553
272,plettenberg bay,-34.0527,23.3716,18.67,90,74,3.59,ZA,1711923553
273,nar'yan-mar,67.6713,53.087,-8.27,87,98,3.58,RU,1711923432
274,laguna,38.421,-121.4238,20.16,53,75,3.6,US,1711923440
275,caconda,-13.7333,15.0667,18.84,77,100,1.31,AO,1711923554
276,la rinconada,37.4873,-5.9826,11.7,86,0,3.6,ES,1711923554
277,merizo village,13.2658,144.6691,28.31,93,100,8.59,GU,1711923489
278,mhamid,29.82,-5.72,19.64,34,0,7.57,MA,1711923554
279,renfrew,55.872,-4.3925,7.53,81,78,5.14,GB,1711923554
280,sitka,57.0531,-135.33,5.94,65,100,2.57,US,1711923447
281,jalai nur,49.45,117.7,-13.48,68,0,0.83,CN,1711923555
282,rocha,-34.4833,-54.3333,17.37,54,100,4.31,UY,1711923282
283,gisborne,-38.6533,178.0042,16.72,60,32,2.22,NZ,1711923555
284,homer,59.6425,-151.5483,5.93,52,40,8.75,US,1711923298
285,ceeldheer,3.8488,47.1806,28.01,76,8,4.52,SO,1711923555
286,viljandi,58.3639,25.59,10.12,94,68,2.39,EE,1711923555
287,palmer,42.1584,-72.3287,12.91,36,20,5.14,US,1711923556
288,rawson,-43.3002,-65.1023,15.09,28,41,2.94,AR,1711923215
289,hola,51.5377,23.1902,18.1,50,90,6.0,PL,1711923556
290,ad dawadimi,24.5077,44.3924,15.64,70,57,4.5,SA,1711923556
291,kone,-21.0595,164.8658,26.8,58,0,2.06,NC,1711923438
292,vorgashor,67.5833,63.95,-8.7,95,100,4.53,RU,1711923453
293,nicoya,10.1483,-85.452,34.67,27,56,2.11,CR,1711923556
294,labytnangi,66.6572,66.4183,-8.27,96,100,4.3,RU,1711923557
295,luderitz,-26.6481,15.1594,16.39,90,1,5.53,NA,1711923426
296,balaipungut,1.05,101.2833,24.21,97,83,1.25,ID,1711923557
297,tianpeng,30.9866,103.9393,18.26,68,91,1.81,CN,1711923557
298,bac lieu,9.285,105.7244,27.21,78,8,1.24,VN,1711923557
299,al jawf,29.5,38.75,18.0,49,0,3.74,SA,1711923479
300,bama,11.5221,13.6856,31.88,15,99,3.35,NG,1711923557
301,basco,20.4487,121.9702,26.9,75,44,2.63,PH,1711923558
302,georgetown,5.4112,100.3354,28.3,83,20,1.03,MY,1711923430
303,laascaanood,8.4774,47.3597,23.67,68,5,4.52,SO,1711923558
304,thunder bay,48.4001,-89.3168,2.63,63,87,4.35,CA,1711923282
305,yeppoon,-23.1333,150.7333,22.88,83,100,5.74,AU,1711923558
306,mogocha,53.7333,119.7667,-19.09,99,24,1.53,RU,1711923558
307,flin flon,54.7682,-101.865,-2.03,70,100,2.46,CA,1711923433
308,holualoa,19.6228,-155.9522,25.43,81,20,6.17,US,1711923559
309,sao vicente,-23.9631,-46.3919,28.1,54,23,3.58,BR,1711923489
310,auki,-8.7676,160.7034,26.97,85,100,0.6,SB,1711923320
311,fauske,67.2588,15.3918,2.02,80,100,2.87,NO,1711923559
312,kamina,-8.7386,24.9906,18.86,96,100,1.82,CD,1711923559
313,waitara,-38.925,174.25,13.89,71,30,0.45,NZ,1711923559
314,chibougamau,49.9168,-74.3659,-3.08,81,100,5.02,CA,1711923390
315,coquimbo,-29.9533,-71.3436,18.86,74,3,2.06,CL,1711923358
316,newman,37.3138,-121.0208,19.47,56,57,1.34,US,1711923466
317,mossel bay,-34.1831,22.146,19.96,82,95,2.7,ZA,1711923560
318,arkhangel'sk,64.5401,40.5433,-7.15,100,20,1.0,RU,1711923435
319,richards bay,-28.783,32.0377,22.24,76,48,5.51,ZA,1711923494
320,san sebastian de la gomera,28.0916,-17.1133,20.2,68,0,0.0,ES,1711923560
321,cabo san lucas,22.8909,-109.9124,25.9,60,84,5.36,MX,1711923474
322,salaga,8.5508,-0.5188,32.44,50,100,5.18,GH,1711923376
323,oyama,36.3,139.8,14.77,68,100,2.91,JP,1711923561
324,al ghayzah,16.2079,52.176,25.31,67,17,2.51,YE,1711923561
325,haiku-pauwela,20.9219,-156.3051,27.01,66,40,8.23,US,1711923453
326,antofagasta,-23.65,-70.4,20.63,78,8,2.71,CL,1711923353
327,nuku'alofa,-21.1333,-175.2,29.19,84,75,3.6,TO,1711923561
328,mokrous,51.2333,47.5167,9.72,80,100,3.11,RU,1711923561
329,encheng,22.1839,112.3026,25.41,88,67,2.0,CN,1711923562
330,marsa alam,25.0757,34.8918,23.88,50,0,4.03,EG,1711923562
331,kingston,17.997,-76.7936,28.98,68,50,1.97,JM,1711923204
332,morant bay,17.8815,-76.4093,30.79,75,32,5.88,JM,1711923562
333,wynyard,-41.0,145.7167,14.88,83,100,3.52,AU,1711923562
334,kourou,5.1552,-52.6478,27.03,86,99,3.29,GF,1711923562
335,lee acres,35.1487,-106.647,21.9,19,75,14.4,US,1711923563
336,pangkalanbuun,-2.6833,111.6167,23.92,99,100,0.59,ID,1711923563
337,la'ie,21.6477,-157.9253,26.98,66,8,3.58,US,1711923563
338,dawei,14.0833,98.2,22.59,74,0,1.52,MM,1711923439
339,ar raqqah,35.95,39.0167,21.32,33,90,2.26,SY,1711923563
340,mpika,-11.8343,31.4529,17.55,97,100,3.58,ZM,1711923554
341,puerto armuelles,8.2833,-82.8667,32.99,43,29,0.45,PA,1711923563
342,el alto,-4.2714,-81.2147,25.81,70,58,4.08,PE,1711923564
343,forbes,-33.3833,148.0167,25.51,43,0,1.79,AU,1711923357
344,forster,-32.1667,152.5167,20.16,95,100,2.0,AU,1711923564
345,rajanpur,29.1035,70.325,22.33,33,95,3.13,PK,1711923564
346,abu zabad,12.35,29.25,24.95,11,74,5.87,SD,1711923564
347,de aar,-30.6497,24.0123,20.1,66,65,2.66,ZA,1711923564
348,mbuji-mayi,-6.15,23.6,22.08,96,100,0.65,CD,1711923564
349,zarah sharan,33.1467,68.7917,7.06,54,78,2.34,AF,1711923565
350,adrar,20.5022,-10.0711,27.97,19,82,4.22,MR,1711923565
351,spanish wells,26.323,-81.7957,27.79,61,40,3.6,US,1711923565
352,piranhas,-16.4269,-51.8222,25.92,82,99,0.95,BR,1711923565
353,tari,12.4086,4.4914,32.38,10,15,3.74,NG,1711923566
354,crane,31.3974,-102.3501,31.02,11,100,10.45,US,1711923468
355,nyagan,62.1406,65.3936,-4.72,95,100,2.95,RU,1711923566
356,tolanaro,-25.0319,46.9987,22.75,89,97,6.53,MG,1711923426
357,lautoka,-17.6167,177.4667,28.92,74,75,1.03,FJ,1711923566
358,nizhnyaya tavda,57.6731,66.1725,1.54,99,100,4.14,RU,1711923566
359,san julian,21.0167,-102.1667,29.22,8,86,6.09,MX,1711923566
360,hassi messaoud,31.6804,6.0729,24.92,12,0,3.6,DZ,1711923566
361,lulea,65.5842,22.1547,-1.96,93,100,3.6,SE,1711923567
362,manavalakurichi,8.1333,77.3,26.77,72,38,1.94,IN,1711923567
363,regina,50.4501,-104.6178,1.69,53,56,3.58,CA,1711922895
364,smithers,54.7804,-127.1743,13.18,30,20,7.2,CA,1711923567
365,san pedro,14.35,121.0167,27.42,84,20,2.06,PH,1711923567
366,monteros,-27.1674,-65.4983,27.84,63,0,1.21,AR,1711923567
367,sale,34.0389,-6.8166,13.38,100,75,2.06,MA,1711923568
368,levanger,63.7464,11.2996,4.03,98,100,1.63,NO,1711923568
369,cidreira,-30.1811,-50.2056,23.57,83,91,2.88,BR,1711923475
370,northam,51.0333,-4.2167,8.67,94,100,5.83,GB,1711923568
371,coronel suarez,-37.4547,-61.9334,16.06,46,99,4.2,AR,1711923304
372,juruti,-2.1522,-56.0922,26.39,89,64,1.39,BR,1711923568
373,gospic,44.5461,15.3747,13.83,87,89,5.91,HR,1711923568
374,majene,-3.5403,118.9707,25.01,91,100,1.95,ID,1711923569
375,kamennogorsk,60.9545,29.1339,4.75,95,77,2.9,RU,1711923569
376,blenheim,-41.516,173.9528,14.18,78,96,0.83,NZ,1711923569
377,ciudad rio bravo,25.9833,-98.1,30.95,58,100,5.14,MX,1711923569
378,sechura,-5.5569,-80.8222,27.4,56,100,5.89,PE,1711923569
379,kuandian,40.7286,124.7847,1.39,57,6,0.72,CN,1711923569
380,akureyri,65.6835,-18.0878,-5.85,96,100,1.55,IS,1711923448
381,marsh harbour,26.5412,-77.0636,21.97,56,1,4.13,BS,1711923429
382,isiro,2.7739,27.616,18.48,99,100,2.06,CD,1711923454
383,aver-o-mar,41.4078,-8.7812,11.31,82,75,5.14,PT,1711923570
384,juneau,58.3019,-134.4197,6.34,56,75,5.66,US,1711923568
385,suva,-18.1416,178.4415,28.71,79,75,3.6,FJ,1711923453
386,al muwayh,22.4333,41.7583,20.31,67,51,6.39,SA,1711923570
387,sinjhoro,26.0303,68.809,24.4,16,85,1.62,PK,1711923570
388,dryden,49.7833,-92.7503,-0.84,55,20,2.57,CA,1711923570
389,fada,9.5667,8.3,26.44,48,100,1.05,NG,1711923571
390,la paz,-16.5,-68.15,11.99,76,75,3.6,BO,1711923571
391,ust'-ilimsk,58.0006,102.6619,-0.31,94,100,3.13,RU,1711923571
392,linxia chengguanzhen,35.6003,103.2064,12.28,56,84,0.49,CN,1711923460
393,kijang,35.2442,129.2139,11.62,68,0,2.3,KR,1711923443
394,kirensk,57.7853,108.1119,-1.69,98,100,1.79,RU,1711923571
395,bereznik,62.8551,42.7072,0.06,95,99,1.14,RU,1711923443
396,quimper,48.0,-4.1,8.31,93,38,1.92,FR,1711923572
397,qaqortoq,60.7167,-46.0333,-4.87,80,56,2.22,GL,1711923436
398,chanar ladeado,-33.3252,-62.0383,20.21,61,31,3.48,AR,1711923572
399,heroica caborca,30.7167,-112.15,15.93,66,100,7.24,MX,1711923572
400,kokomo,40.4864,-86.1336,19.46,49,0,3.09,US,1711923285
401,ancud,-41.8697,-73.8203,11.22,67,3,2.58,CL,1711923398
402,baikonur,45.6167,63.3167,6.02,62,96,3.85,KZ,1711923573
403,'ain merane,36.1628,0.9704,12.66,70,47,8.13,DZ,1711923573
404,sodra sandby,56.5667,16.6167,5.5,93,81,1.94,SE,1711923573
405,masuguru,-11.3667,38.4167,22.22,94,79,1.05,TZ,1711923573
406,popondetta,-8.7537,148.2534,26.15,90,100,0.67,PG,1711923573
407,lethem,3.3803,-59.7968,33.15,45,100,3.93,GY,1711923573
408,minas de marcona,-15.2119,-75.1103,19.46,72,63,7.15,PE,1711923574
409,dhidhdhoo,6.8833,73.1,28.58,70,25,0.73,MV,1711923574
410,las khorey,11.1595,48.1967,27.03,81,4,4.77,SO,1711923574
411,khandyga,62.6667,135.6,-24.27,100,99,0.49,RU,1711923137
412,nyurba,63.2842,118.3319,-25.27,100,22,1.55,RU,1711923475
413,faya-largeau,17.9257,19.1043,30.69,13,0,5.41,TD,1711923574
414,diboll,31.1871,-94.781,27.34,69,75,5.14,US,1711923574
415,betio village,1.358,172.9211,28.02,80,29,7.05,KI,1711923575
416,olyokminsk,60.3736,120.4264,-21.68,99,84,0.81,RU,1711923575
417,ghat,24.9647,10.1728,26.19,8,0,1.33,LY,1711923444
418,les anglais,18.3054,-74.2197,26.3,75,95,0.98,HT,1711923575
419,kihancha,-1.1838,34.6262,17.53,89,75,2.08,KE,1711923575
420,verdal,63.7933,11.4817,4.02,99,100,1.1,NO,1711923332
421,tabina,7.4669,123.4081,27.26,80,67,3.62,PH,1711923575
422,tazovsky,67.4667,78.7,-22.08,99,100,2.09,RU,1711923454
423,tavsanli,39.5424,29.4987,13.59,57,5,0.71,TR,1711923576
424,black river,18.0264,-77.8487,27.87,64,17,1.79,JM,1711923576
425,natal,-5.795,-35.2094,25.36,88,20,1.03,BR,1711923228
426,toliara,-23.35,43.6667,25.12,74,4,6.82,MG,1711923576
427,aqaba,29.5267,35.0078,27.92,28,4,10.29,JO,1711923576
428,semporna,4.4818,118.6112,25.96,87,83,1.8,MY,1711923429
429,crucecita,-28.95,-58.9833,23.38,87,100,5.44,AR,1711923577
430,bakanas,44.8081,76.2772,4.13,52,9,3.04,KZ,1711923577
431,kristinestad,62.2743,21.376,4.5,96,100,2.09,FI,1711923577
432,preston,53.7667,-2.7167,8.71,82,81,6.75,GB,1711923478
433,emerald,-23.5333,148.1667,22.97,74,100,3.38,AU,1711923288
434,avallon,47.4833,3.9,8.01,97,100,1.47,FR,1711923577
435,andreapol',56.6513,32.2664,11.82,90,100,3.77,RU,1711923578
436,port macquarie,-31.4333,152.9167,21.05,79,95,0.92,AU,1711923422
437,salalah,17.0151,54.0924,26.05,61,0,1.54,OM,1711923578
438,kill devil hills,36.0307,-75.676,20.0,78,0,2.57,US,1711923486
439,lillehammer,61.1146,10.4674,-0.35,96,100,1.83,NO,1711923578
440,san luis de la loma,17.2706,-100.8939,29.62,57,26,4.03,MX,1711923578
441,barah,13.7,30.3667,24.03,13,18,5.69,SD,1711923578
442,new norfolk,-42.7826,147.0587,13.29,87,100,0.67,AU,1711923461
443,aldan,58.6031,125.3894,-19.77,95,99,1.56,RU,1711923579
444,alaghsas,17.0187,8.0168,31.74,9,49,4.58,NE,1711923579
445,cururupu,-1.8283,-44.8683,25.53,92,35,1.45,BR,1711923579
446,xai-xai,-25.0519,33.6442,21.72,86,81,2.97,MZ,1711923579
447,lofthouse,53.7295,-1.497,7.49,93,75,6.17,GB,1711923579
448,abepura,-2.6333,140.5833,25.45,89,40,0.51,ID,1711923579
449,lamar,33.6668,-95.5836,23.69,80,100,7.2,US,1711923580
450,bumba,2.1833,22.4667,23.48,93,67,1.18,CD,1711923373
451,tongchuanshi,35.0806,109.0897,14.82,67,62,2.16,CN,1711923580
452,valle de la pascua,9.2155,-66.0073,32.44,33,98,6.38,VE,1711923580
453,nagqu,31.5,92.0,-2.35,24,100,6.93,CN,1711923467
454,abaza,52.655,90.0928,-0.08,93,100,2.88,RU,1711923580
455,birjand,32.8663,59.2211,10.26,23,0,3.09,IR,1711923580
456,amasra,41.7463,32.3863,16.83,62,100,3.63,TR,1711923581
457,dowlatabad,32.7998,51.6955,6.82,39,0,2.06,IR,1711923581
458,enshi,30.3,109.4833,16.81,87,100,0.53,CN,1711923431
459,timbuktu,16.7735,-3.0074,33.8,14,68,2.93,ML,1711923581
460,tromso,69.6496,18.957,-4.99,80,0,2.57,NO,1711923303
461,caleta de carquin,-11.0925,-77.6267,23.97,77,23,5.54,PE,1711923582
462,noumea,-22.2763,166.4572,26.99,99,1,2.6,NC,1711923582
463,baringo,0.4667,35.9667,23.07,61,73,1.22,KE,1711923582
464,zabid,14.1951,43.3152,27.79,72,73,5.72,YE,1711923582
465,godda,24.8333,87.2167,30.02,27,0,5.51,IN,1711923582
466,fisterra,42.9049,-9.2629,10.97,74,53,10.46,ES,1711923582
467,ciudad lazaro cardenas,17.9583,-102.2,28.71,55,27,5.37,MX,1711923464
468,glencoe,-28.1783,30.147,14.97,88,95,1.64,ZA,1711923583
469,diu,20.7141,70.9822,23.63,62,21,5.58,IN,1711923583
470,pizhou,34.3114,117.9503,10.9,92,2,3.24,CN,1711923583
471,pingdingshan,33.7385,113.3012,16.52,84,81,1.94,CN,1711923583
472,coahuayana de hidalgo,18.7,-103.6583,30.36,45,40,3.15,MX,1711923453
473,castillos,-34.1667,-53.8333,16.75,69,100,4.9,UY,1711923432
474,aliaga,15.5167,120.8667,25.72,90,43,2.15,PH,1711923583
475,silifke,36.3778,33.9344,20.58,53,93,1.43,TR,1711923584
476,biltine,14.5333,20.9167,28.55,12,93,4.91,TD,1711923584
477,rawala kot,33.8578,73.7604,9.75,55,98,3.44,PK,1711923584
478,vernal,40.4555,-109.5287,8.84,58,100,6.17,US,1711923484
479,kavaratti,10.5669,72.642,28.45,73,4,4.31,IN,1711923493
480,dwarka,22.2394,68.9678,24.56,76,100,4.58,IN,1711923585
481,phan thiet,10.9333,108.1,24.4,91,8,1.04,VN,1711923585
482,rivne,50.6231,26.2274,16.71,64,56,4.14,UA,1711923585
483,sao joao da barra,-21.6403,-41.0511,25.05,91,8,4.06,BR,1711923472
484,saudarkrokur,65.7461,-19.6394,-4.86,77,80,8.29,IS,1711923585
485,la plata,-34.9215,-57.9545,19.46,56,88,6.29,AR,1711923026
486,lautaro,-38.5167,-72.45,13.99,42,88,3.91,CL,1711923585
487,island harbour,50.724,-1.2758,9.56,93,100,0.45,GB,1711923586
488,dingtao,35.0683,115.5625,13.77,95,18,3.96,CN,1711923586
489,saguenay,48.4168,-71.0657,2.82,52,96,2.24,CA,1711923467
490,pampa,35.5362,-100.9599,27.53,31,0,6.17,US,1711923586
491,bubaque,11.2833,-15.8333,24.84,73,64,9.95,GW,1711923477
492,kulhudhuffushi,6.6221,73.07,28.54,70,20,0.68,MV,1711923586
493,opuwo,-18.0607,13.84,21.75,40,53,1.6,NA,1711923586
494,rio grande,-32.035,-52.0986,23.06,83,100,9.27,BR,1711923362
495,agogo,6.8,-1.0819,24.18,83,100,4.16,GH,1711923587
496,n'zeto,-7.2312,12.8666,27.38,88,100,0.98,AO,1711923587
497,la tuque,47.4334,-72.7824,6.14,26,100,3.09,CA,1711923587
498,tadine,-21.55,167.8833,24.81,73,26,5.61,NC,1711923587
499,svetlyy,54.675,20.1347,16.03,76,68,3.51,RU,1711923587
500,bamusso,4.4591,8.9027,27.45,84,100,2.25,CM,1711923587
501,piacabucu,-10.4056,-36.4344,27.45,83,44,3.26,BR,1711923411
502,colchani,-20.3,-66.9333,14.59,26,100,3.58,BO,1711923493
503,las lomitas,-24.7096,-60.593,27.75,66,71,1.26,AR,1711923588
504,hilo,19.7297,-155.09,25.61,75,75,4.63,US,1711923375
505,tarawa,1.419,172.984,28.05,89,75,4.12,KI,1711923458
506,badarganj,25.674,89.0549,27.24,37,6,3.19,BD,1711923588
507,oliveira dos brejinhos,-12.3169,-42.8961,28.6,41,99,0.36,BR,1711923588
508,koryazhma,61.3143,47.1691,3.28,93,100,2.87,RU,1711923588
509,cruzeiro do sul,-29.5128,-51.9853,26.96,77,74,0.61,BR,1711923589
510,ararangua,-28.9347,-49.4858,21.93,83,90,0.97,BR,1711923589
511,san fernando,15.0286,120.6898,23.61,85,90,0.8,PH,1711922996
512,puerto la cruz,10.2167,-64.6167,26.59,81,95,6.22,VE,1711923589
513,praia,14.9215,-23.5087,22.3,64,75,7.72,CV,1711923319
514,grand-bassam,5.2118,-3.7388,28.98,81,100,1.51,CI,1711923589
515,minab,27.1467,57.0801,22.26,70,98,1.2,IR,1711923589
516,meizhou,24.2977,116.1072,21.32,94,91,0.46,CN,1711923590
517,mukalla,14.5425,49.1242,26.26,71,53,3.45,YE,1711923424
518,oum hadjer,13.2954,19.6966,32.05,11,100,5.69,TD,1711923590
519,bandar-e lengeh,26.5579,54.8807,23.5,62,98,3.27,IR,1711923590
520,pont rouge,48.8833,-72.0825,2.16,63,100,4.4,CA,1711923590
521,sydney,-33.8679,151.2073,21.32,81,0,2.57,AU,1711923342
522,harstad,68.799,16.5293,-3.25,80,38,10.73,NO,1711923590
523,belmonte,-15.8631,-38.8828,27.14,81,4,3.04,BR,1711923491
524,akrehamn,59.2667,5.1833,5.14,93,100,4.12,NO,1711923591
525,saint-joseph,-21.3667,55.6167,25.21,85,78,5.1,RE,1711923314
526,karasuk,53.7377,78.0403,0.66,99,100,3.17,RU,1711923591
527,tyukhtet,56.5389,89.3011,-6.89,90,42,3.45,RU,1711923591
528,nova xavantina,-14.6667,-52.35,26.12,86,91,1.31,BR,1711923443
529,meadow lakes,61.6247,-149.6011,2.73,72,100,4.63,US,1711923591
530,maria aurora,15.7967,121.4737,21.64,96,60,0.76,PH,1711923591
531,bodo,67.28,14.405,2.02,68,75,7.2,NO,1711923592
532,port saint john's,-31.6229,29.5448,22.79,83,72,6.4,ZA,1711923458
533,ta`u,-14.2336,-169.5144,29.3,77,23,8.41,AS,1711923438
534,katsuren-haebaru,26.3369,127.8719,20.05,94,75,1.54,JP,1711923293
535,shalkar,47.8288,59.6258,4.28,68,87,1.75,KZ,1711923592
536,karimganj,24.8667,92.35,20.73,96,59,1.1,IN,1711923592
537,manacapuru,-3.2997,-60.6206,27.25,86,90,1.46,BR,1711923580
538,tsiombe,-25.3,45.4833,22.4,83,70,8.04,MG,1711923444
539,happy valley-goose bay,53.3168,-60.3315,1.78,83,99,3.21,CA,1711923310
540,shimokizukuri,40.8061,140.3861,7.16,67,54,2.23,JP,1711923593
541,labasa,-16.4167,179.3833,29.64,70,99,1.99,FJ,1711923593
542,anaconda,46.1285,-112.9423,6.55,57,100,6.08,US,1711923593
543,aykhal,66.0,111.5,-14.27,100,100,3.83,RU,1711923435
544,fale old settlement,-9.3852,-171.2468,29.83,74,77,6.56,TK,1711923422
545,anori,-3.7728,-61.6442,25.98,94,93,1.45,BR,1711923594
546,spring hill,28.4769,-82.5255,26.98,60,75,4.63,US,1711923351
547,berezovyy,51.6667,135.7,-2.84,90,100,1.78,RU,1711923594
548,jaisalmer,26.9147,70.9181,23.76,26,38,3.69,IN,1711923594
549,souillac,-20.5167,57.5167,24.08,100,75,0.0,MU,1711923594
550,camaqua,-30.8511,-51.8122,22.77,80,72,2.55,BR,1711923360
551,leava,-14.3,-178.1667,29.11,78,90,6.8,WF,1711923594
552,sharlyk,52.9167,54.75,2.01,100,100,2.17,RU,1711923595
553,selfoss,63.9331,-20.9971,-2.2,49,100,13.73,IS,1711923483
554,matamey,13.4231,8.4749,30.06,10,40,4.91,NE,1711923595
555,abocho,7.5677,6.9863,28.06,67,48,5.63,NG,1711923595
556,dali,25.7,100.1833,10.51,91,10,2.24,CN,1711923595
557,bandarban,22.1965,92.2262,21.53,77,1,1.44,BD,1711923595
558,tamanrasset,22.785,5.5228,24.95,12,0,2.06,DZ,1711923481
559,peniche,39.3558,-9.3811,12.28,87,44,8.51,PT,1711923266
560,al hufuf,25.3646,49.5653,21.19,40,0,1.54,SA,1711923596
561,cannonvale,-20.2833,148.7,25.66,78,72,5.53,AU,1711923596
562,posadas,-27.3671,-55.8961,26.6,52,56,1.34,AR,1711923535
563,bornu yassu,12.2774,12.5552,31.37,12,99,4.55,NG,1711923596
564,olinda,-8.0089,-34.8553,29.85,74,40,2.06,BR,1711923596
565,beardstown,40.0176,-90.4243,20.94,75,83,2.98,US,1711923596
566,kalabo,-14.97,22.6814,19.21,91,100,1.41,ZM,1711923597
567,jaicos,-7.3592,-41.1378,23.63,93,99,3.41,BR,1711923597
568,tobelo,1.7284,128.0095,26.58,84,81,2.07,ID,1711923597
