City_ID,City,Lat,Lng,Max Temp,Humidity,Cloudiness,Wind Speed,Country,Date
0,queenstown,-31.8976,26.8753,15.14,82,100,3.76,ZA,1711737017
1,mont-tremblant,46.1949,-74.6264,7.77,36,86,2.06,CA,1711736609
2,fale old settlement,-9.3852,-171.2468,29.35,76,17,4.9,TK,1711737022
3,vorkuta,67.5,64.0,-11.41,96,100,4.22,RU,1711737048
4,adamstown,-25.066,-130.1015,23.76,70,100,12.39,PN,1711737022
5,blackmans bay,-43.0167,147.3167,13.62,90,28,1.49,AU,1711737005
6,chonchi,-42.6128,-73.8092,14.56,62,46,3.25,CL,1711737057
7,luanda,-8.8368,13.2343,26.0,83,75,1.54,AO,1711736933
8,invercargill,-46.4,168.35,10.01,95,91,3.03,NZ,1711736946
9,cottonwood,34.7392,-112.0099,20.79,29,12,4.47,US,1711736977
10,punta arenas,-53.15,-70.9167,7.06,70,40,12.35,CL,1711736916
11,kimbe,-5.5502,150.1429,24.59,91,100,1.55,PG,1711737090
12,sao vicente,-23.9631,-46.3919,30.15,63,100,1.34,BR,1711737019
13,vilyuchinsk,52.9306,158.4028,-7.82,77,3,2.68,RU,1711737091
14,beroroha,-21.6667,45.1667,24.86,69,18,1.81,MG,1711737092
15,belmonte,-15.8631,-38.8828,29.08,69,27,2.61,BR,1711737092
16,hamilton,39.1834,-84.5333,20.5,38,20,7.72,US,1711736643
17,khandyga,62.6667,135.6,-15.97,97,99,2.65,RU,1711737093
18,port-aux-francais,-49.35,70.2167,8.18,97,100,11.37,TF,1711736999
19,miles city,46.4083,-105.8406,1.54,86,100,5.14,US,1711736967
20,puerto aysen,-45.4,-72.7,8.08,93,100,3.41,CL,1711737094
21,kodiak,57.79,-152.4072,3.73,93,100,6.17,US,1711736807
22,jamestown,42.097,-79.2353,3.9,59,100,5.14,US,1711737036
23,alice springs,-23.7,133.8833,20.75,88,1,0.0,AU,1711737014
24,kushikino,31.7167,130.2667,13.27,87,10,1.42,JP,1711737095
25,encantado,-29.2361,-51.8697,32.81,44,61,2.24,BR,1711736919
26,olonkinbyen,70.9221,-8.7187,-3.73,64,100,7.53,SJ,1711737000
27,kapa'a,22.0752,-159.319,23.99,79,100,7.2,US,1711737073
28,crane,31.3974,-102.3501,26.63,17,100,3.83,US,1711737036
29,illela,13.7292,5.2975,33.91,6,76,2.39,NG,1711737097
30,ushuaia,-54.8,-68.3,2.81,87,100,10.8,AR,1711737033
31,isafjordur,66.0755,-23.124,-1.83,89,92,13.46,IS,1711737097
32,nabire,-3.3667,135.4833,24.84,91,100,0.92,ID,1711737097
33,yellowknife,62.456,-114.3525,-7.55,62,20,2.57,CA,1711737020
34,colares,38.7992,-9.4469,12.82,82,40,6.17,PT,1711737098
35,kalianget,-7.05,113.9333,27.57,81,65,3.91,ID,1711737099
36,albany,42.6001,-73.9662,11.35,40,60,4.47,US,1711737001
37,ust-nera,64.5667,143.2,-6.03,93,100,2.13,RU,1711737009
38,vorgashor,67.5833,63.95,-11.77,95,100,4.91,RU,1711737011
39,eket,4.6412,7.9209,28.61,81,8,4.89,NG,1711737101
40,keflavik,64.0049,-22.5624,2.95,60,20,10.29,IS,1711737101
41,edinburgh of the seven seas,-37.0676,-12.3116,15.61,69,79,9.21,SH,1711736997
42,karaton,-6.3424,106.1045,23.96,94,97,0.48,ID,1711737101
43,pakur,24.6333,87.85,27.47,47,18,2.15,IN,1711737102
44,lebu,-37.6167,-73.65,15.6,68,2,9.1,CL,1711737042
45,uturoa,-16.7333,-151.4333,28.88,71,76,7.32,PF,1711737102
46,korla,41.7597,86.1469,16.34,24,98,2.6,CN,1711737103
47,thunder bay,48.4001,-89.3168,1.99,44,40,3.6,CA,1711736941
48,vizinga,61.0749,50.1031,2.1,92,100,4.55,RU,1711737104
49,cerro de ortega,18.75,-103.7667,29.93,39,93,3.54,MX,1711737105
50,the bottom,17.6259,-63.2492,26.31,68,57,4.96,BQ,1711737105
51,college,64.8569,-147.8028,2.11,77,20,4.63,US,1711737058
52,aykhal,66.0,111.5,-27.15,99,74,3.49,RU,1711737106
53,wabag,-5.4781,143.7021,12.66,99,100,1.15,PG,1711737106
54,stanley,54.868,-1.6985,8.73,90,75,8.23,GB,1711737011
55,pechora,65.1472,57.2244,-0.08,97,100,7.15,RU,1711736957
56,libreville,0.3925,9.4537,29.01,84,20,1.54,GA,1711737107
57,pointe-noire,-4.7761,11.8635,27.52,82,90,2.21,CG,1711736961
58,mendoza,-32.8908,-68.8272,29.74,45,0,2.06,AR,1711736816
59,iskateley,67.6803,53.1512,-3.88,91,100,6.71,RU,1711737067
60,colonia,50.9333,6.95,13.3,79,20,7.2,DE,1711737018
61,aasiaat,68.7098,-52.8699,-13.09,82,16,1.76,GL,1711737109
62,cabinda,-5.55,12.2,29.08,84,75,2.57,AO,1711737109
63,naze,28.3667,129.4833,13.51,69,100,1.2,JP,1711737109
64,villa la angostura,-40.7617,-71.6463,14.23,30,18,5.25,AR,1711736903
65,st. john's,47.5649,-52.7093,14.75,89,100,4.63,CA,1711736853
66,puerto natales,-51.7236,-72.4875,6.25,75,75,6.17,CL,1711736828
67,waitangi,-43.9535,-176.5597,13.23,83,82,1.79,NZ,1711737008
68,harper,4.375,-7.7169,27.78,85,77,3.87,LR,1711737111
69,georgetown,5.4112,100.3354,27.97,84,40,1.54,MY,1711736948
70,wanning,18.8003,110.3967,24.12,93,100,2.89,CN,1711737063
71,atafu village,-8.5421,-172.5159,29.21,74,100,4.02,TK,1711737007
72,international falls,48.6011,-93.411,2.3,56,75,1.79,US,1711737112
73,papatowai,-46.5619,169.4708,10.3,90,85,3.73,NZ,1711737051
74,anadyr,64.75,177.4833,-21.72,84,36,6.0,RU,1711737113
75,okha,53.5739,142.9478,-1.48,95,100,11.2,RU,1711737113
76,inongo,-1.95,18.2667,26.19,75,24,0.81,CD,1711737114
77,northam,51.0333,-4.2167,9.23,80,0,6.38,GB,1711737015
78,arenapolis,-14.4503,-56.8461,29.15,69,100,1.47,BR,1711737114
79,yanam,16.7333,82.2167,24.29,87,0,1.04,IN,1711737115
80,kapuskasing,49.4169,-82.4331,-3.95,68,100,5.66,CA,1711737002
81,bilibino,68.0546,166.4372,-17.4,100,100,0.82,RU,1711737002
82,tiksi,71.6872,128.8694,-32.55,99,51,3.75,RU,1711737003
83,tchintabaraden,15.8969,5.7985,33.3,7,12,3.24,NE,1711737115
84,ribeira grande,38.5167,-28.7,16.54,82,75,13.89,PT,1711737023
85,hawaiian paradise park,19.5933,-154.9731,21.61,94,75,3.09,US,1711737019
86,carnarvon,-24.8667,113.6333,24.75,61,33,8.17,AU,1711737060
87,san juan del sur,11.2529,-85.8705,31.12,70,75,4.12,NI,1711737116
88,copala,16.65,-98.9833,30.89,45,43,4.01,MX,1711737117
89,koulikoro,14.0,-7.75,34.89,17,100,2.33,ML,1711737118
90,jieshi,22.8134,115.8257,22.87,88,100,1.98,CN,1711737118
91,clifton,40.8584,-74.1638,13.69,36,0,8.75,US,1711736867
92,usinsk,65.9939,57.5281,-2.74,96,100,12.52,RU,1711737119
93,san antonio de pale,-1.4014,5.6325,26.69,85,99,1.57,GQ,1711736998
94,hithadhoo,-0.6,73.0833,29.07,72,98,2.66,MV,1711737119
95,plonsk,52.6235,20.3755,13.12,60,97,4.23,PL,1711737120
96,sola,-13.8833,167.55,27.21,79,100,2.65,VU,1711737070
97,saint-joseph,-21.3667,55.6167,25.21,80,100,0.71,RE,1711737121
98,bathsheba,13.2167,-59.5167,30.34,70,20,6.17,BB,1711737121
99,thompson,55.7435,-97.8558,-1.91,19,75,0.0,CA,1711736996
100,west island,-12.1568,96.8225,27.99,74,100,4.12,CC,1711737049
101,ullal,12.8,74.85,28.53,78,20,1.54,IN,1711737122
102,kavieng,-2.5744,150.7967,27.86,78,100,0.62,PG,1711737046
103,moyynkum,44.2914,72.9469,9.8,56,100,5.57,KZ,1711737123
104,longyearbyen,78.2186,15.6401,-22.09,77,40,2.57,SJ,1711736770
105,jonacatepec,18.6833,-98.8,31.78,19,12,3.13,MX,1711737123
106,avarua,-21.2078,-159.775,29.03,84,40,3.09,CK,1711736847
107,longboat key,27.4125,-82.659,27.25,25,0,3.09,US,1711737123
108,sebastopol,44.6,33.5333,12.22,56,0,2.12,UA,1711737124
109,san patricio,28.017,-97.5169,27.92,49,6,10.11,US,1711737124
110,shilin,24.8188,103.3324,13.24,60,2,2.71,CN,1711737125
111,aswan,24.0934,32.907,26.47,19,0,7.76,EG,1711737125
112,okhotsk,59.3833,143.3,-3.41,94,100,9.36,RU,1711737126
113,port elizabeth,-33.918,25.5701,19.5,88,0,2.57,ZA,1711737043
114,al 'amarah,31.8406,47.1396,22.75,32,85,4.44,IQ,1711737126
115,dunedin,-45.8742,170.5036,11.56,85,81,2.24,NZ,1711737067
116,suva,-18.1416,178.4415,22.71,100,75,1.54,FJ,1711737059
117,shimoda,34.6667,138.95,16.72,70,0,7.82,JP,1711737127
118,petropavlovsk-kamchatsky,53.0452,158.6483,-8.64,86,0,3.13,RU,1711737113
119,hasaki,35.7333,140.8333,12.38,79,0,5.73,JP,1711737128
120,saint-pierre,-21.3393,55.4781,25.82,73,0,1.54,RE,1711737129
121,iqaluit,63.7506,-68.5145,-10.15,78,100,1.54,CA,1711736999
122,margaret river,-33.95,115.0667,16.89,89,77,1.71,AU,1711737072
123,barra de santo antonio,-9.4047,-35.5072,30.6,66,89,4.24,BR,1711737129
124,acarau,-2.8856,-40.12,29.37,79,16,5.14,BR,1711737051
125,kudahuvadhoo,2.6708,72.8944,28.62,74,96,3.36,MV,1711737130
126,koubia,11.5833,-11.9,30.87,21,100,2.05,GN,1711737130
127,nova sintra,14.8667,-24.7167,20.02,73,13,5.18,CV,1711737131
128,lobito,-12.3481,13.5456,27.72,84,89,0.72,AO,1711737131
129,ilulissat,69.2167,-51.1,-12.89,75,10,0.76,GL,1711737048
130,uribia,11.7139,-72.266,30.89,49,100,7.68,CO,1711737132
131,port mathurin,-19.6833,63.4167,26.78,83,100,6.03,MU,1711737132
132,osmaniye,37.0742,36.2478,18.27,59,79,2.85,TR,1711736994
133,warah,27.4481,67.7978,26.57,23,0,4.57,PK,1711737133
134,kenai,60.5544,-151.2583,-0.48,99,100,3.09,US,1711737117
135,narvik,68.4384,17.4272,-0.33,81,82,4.66,NO,1711737134
136,bethel,41.3712,-73.414,12.57,36,0,5.66,US,1711737014
137,klyuchi,52.2667,79.1667,5.2,79,75,5.25,RU,1711737118
138,ankang,32.68,109.0172,17.89,54,80,0.49,CN,1711737135
139,bredasdorp,-34.5322,20.0403,18.18,80,100,4.91,ZA,1711737034
140,fortuna,40.5982,-124.1573,13.32,67,0,2.57,US,1711737135
141,mazagao,-0.115,-51.2894,28.03,97,100,3.05,BR,1711737136
142,saipan,15.1355,145.701,27.39,1,20,5.14,MP,1711737030
143,novodvinsk,64.4165,40.8122,0.99,99,100,1.59,RU,1711737136
144,grytviken,-54.2811,-36.5092,5.35,98,100,5.73,GS,1711737003
145,ebon,4.582,168.6964,28.36,82,100,8.73,MH,1711737137
146,santa marta de ortigueira,43.6833,-7.85,12.28,60,18,0.45,ES,1711737137
147,nouadhibou,20.931,-17.0347,21.99,60,0,8.23,MR,1711737138
148,wailua homesteads,22.0669,-159.378,23.24,80,100,7.2,US,1711737020
149,fada,9.5667,8.3,29.69,17,65,0.7,NG,1711737139
150,rishikesh,30.1167,78.3167,25.12,29,100,2.79,IN,1711737140
151,lamar,33.6668,-95.5836,22.72,52,0,9.26,US,1711737140
152,faya-largeau,17.9257,19.1043,32.34,10,13,5.53,TD,1711737140
153,inverloch,-38.6333,145.7167,13.92,84,4,1.32,AU,1711737141
154,cabo san lucas,22.8909,-109.9124,28.61,26,0,2.06,MX,1711736683
155,bubaque,11.2833,-15.8333,25.1,71,100,11.68,GW,1711737141
156,itaituba,-4.2761,-55.9836,29.09,79,40,2.06,BR,1711737142
157,gogrial,8.5332,28.1004,33.52,11,100,2.31,SS,1711737142
158,zimatlan de alvarez,16.8667,-96.7833,26.14,34,20,4.12,MX,1711737143
159,tolmezzo,46.4075,13.0175,12.46,98,100,0.41,IT,1711737143
160,garachico,28.7781,-17.7646,18.06,52,75,3.09,ES,1711737144
161,leava,-14.3,-178.1667,28.77,78,100,5.6,WF,1711737144
162,dalandzadgad,43.5708,104.425,6.15,30,90,3.07,MN,1711737144
163,midvagur,62.0511,-7.1939,4.46,81,100,11.83,FO,1711737145
164,flying fish cove,-10.4217,105.6791,25.82,88,75,4.63,CX,1711736955
165,ust'-ilimsk,58.0006,102.6619,-15.31,97,100,1.79,RU,1711737146
166,vila velha,-20.3297,-40.2925,30.97,82,20,3.6,BR,1711736887
167,sarykemer,43.0,71.5,7.71,58,100,0.85,KZ,1711737147
168,daru,-9.0763,143.2092,26.56,90,100,2.22,PG,1711737147
169,luderitz,-26.6481,15.1594,17.1,85,1,2.67,NA,1711737148
170,bonthe,7.5264,-12.505,27.6,70,49,4.01,SL,1711737148
171,tlaltenango de sanchez roman,21.7833,-103.3167,29.04,8,0,6.32,MX,1711737149
172,ojinaga,29.5667,-104.4167,28.65,17,0,4.12,MX,1711737149
173,montegranaro,43.2355,13.631,17.41,68,100,2.07,IT,1711737150
174,hermanus,-34.4187,19.2345,19.33,79,100,6.11,ZA,1711737021
175,hassi messaoud,31.6804,6.0729,27.92,9,0,5.14,DZ,1711737150
176,mount gambier,-37.8333,140.7667,10.65,89,0,1.85,AU,1711737112
177,north bend,43.4065,-124.2243,12.95,62,0,3.09,US,1711736918
178,pagar alam,-4.0167,103.2667,21.63,98,100,0.61,ID,1711737152
179,remire-montjoly,4.9167,-52.2667,24.02,94,75,1.54,GF,1711737008
180,revda,56.801,59.9303,-7.14,96,54,3.14,RU,1711737153
181,portland,45.5234,-122.6762,13.52,71,75,3.58,US,1711736870
182,tura,25.5198,90.2201,23.08,58,100,1.38,IN,1711737136
183,enewetak,11.3474,162.3373,27.56,74,100,8.24,MH,1711737043
184,toamasina,-18.1667,49.3833,24.0,94,75,1.54,MG,1711737017
185,kerikeri,-35.2268,173.9474,8.28,91,0,2.51,NZ,1711737065
186,sinabang,2.4803,96.3801,26.68,86,100,2.16,ID,1711737155
187,bel ombre,-4.6167,55.4167,27.91,78,20,1.03,SC,1711737156
188,praia da vitoria,38.7333,-27.0667,16.14,88,75,12.89,PT,1711737156
189,kavaratti,10.5669,72.642,28.55,75,37,4.78,IN,1711737157
190,macau,22.2006,113.5461,25.4,94,40,3.09,MO,1711737102
191,rumphi,-11.0186,33.8575,19.56,97,100,1.34,MW,1711737157
192,kingston,17.997,-76.7936,31.76,60,20,6.17,JM,1711736742
193,kirakira,-10.4544,161.9205,26.85,84,100,2.02,SB,1711737158
194,urengoy,65.9667,78.3667,-5.79,94,100,5.77,RU,1711737115
195,clear lake,43.138,-93.3794,12.85,56,0,9.77,US,1711737159
196,bodo,67.28,14.405,2.65,59,40,13.38,NO,1711737160
197,kamin-kashyrskyi,51.6241,24.9586,9.14,67,3,3.17,UA,1711737160
198,arkhangel'sk,64.5401,40.5433,1.18,100,75,2.0,RU,1711736991
199,aragarcas,-15.8975,-52.2508,32.36,58,40,2.36,BR,1711737161
200,undurkhaan,47.3194,110.6556,-16.37,84,0,1.53,MN,1711737161
201,motygino,58.1831,94.7592,-1.23,84,100,4.92,RU,1711737162
202,saint-philippe,-21.3585,55.7679,25.77,79,100,0.36,RE,1711737162
203,tosontsengel,48.7567,98.2839,-7.3,94,100,0.41,MN,1711737162
204,kalispell,48.1958,-114.3129,6.77,66,75,4.63,US,1711737163
205,constantia,44.1833,28.65,16.5,60,0,3.58,RO,1711737105
206,shenjiamen,29.9576,122.298,12.33,91,100,6.6,CN,1711737164
207,laguna,38.421,-121.4238,12.38,80,75,5.14,US,1711737056
208,antofagasta,-23.65,-70.4,21.6,70,26,3.78,CL,1711736803
209,la passe,45.5549,-0.8967,9.43,93,100,1.86,FR,1711737143
210,wanlaweyn,2.6185,44.8938,28.38,68,0,7.9,SO,1711737165
211,angaur state,6.906,134.13,27.94,82,70,8.01,PW,1711737029
212,tirebolu,41.0069,38.8139,14.53,74,29,4.3,TR,1711737165
213,verkh-tula,54.8839,82.7762,1.88,80,0,4.0,RU,1711737166
214,kruisfontein,-34.0033,24.7314,18.27,74,85,2.82,ZA,1711737053
215,whitehorse,60.7161,-135.0538,1.68,59,20,6.71,CA,1711737041
216,machico,32.7,-16.7667,18.35,55,20,2.06,PT,1711737166
217,santa marta,11.2408,-74.199,33.03,58,20,1.54,CO,1711737167
218,howard springs,-12.497,131.047,25.95,96,100,1.15,AU,1711737167
219,urangan,-25.3,152.9,20.67,94,45,3.58,AU,1711737168
220,minas de marcona,-15.2119,-75.1103,23.64,62,14,6.83,PE,1711737017
221,trongsa,27.5026,90.5072,10.99,93,100,0.5,BT,1711737168
222,tadine,-21.55,167.8833,22.29,68,0,5.48,NC,1711737169
223,salalah,17.0151,54.0924,28.05,47,0,2.06,OM,1711737169
224,yarmouth,41.7057,-70.2286,7.3,93,100,10.28,US,1711737170
225,kiunga,-6.1219,141.2906,23.59,100,100,0.38,PG,1711737170
226,pisco,-13.7,-76.2167,25.03,78,20,5.14,PE,1711737170
227,tambo,-14.8,-73.9167,7.13,77,94,3.72,PE,1711737171
228,chernyshevskiy,63.0128,112.4714,-33.14,100,12,0.2,RU,1711737172
229,that phanom,16.9364,104.7104,25.5,77,3,2.89,TH,1711737172
230,ancud,-41.8697,-73.8203,13.71,57,23,4.45,CL,1711737044
231,namibe,-15.1961,12.1522,24.61,81,100,3.81,AO,1711737173
232,katabu,-4.9333,122.5167,24.46,93,38,0.51,ID,1711737174
233,zemio,5.0314,25.1361,30.59,33,100,1.09,CF,1711737175
234,stephenville,32.2207,-98.2023,23.68,54,0,8.75,US,1711737175
235,sitka,57.0531,-135.33,6.94,65,100,2.06,US,1711737176
236,puerto ayora,-0.7393,-90.3518,29.98,92,99,6.71,EC,1711737071
237,cartagena,10.3997,-75.5144,31.79,58,20,9.77,CO,1711736919
238,umba,66.6871,34.3429,-8.25,91,8,2.66,RU,1711737177
239,naujoji akmene,56.3167,22.9,3.71,88,100,2.65,LT,1711737177
240,makokou,0.5738,12.8642,23.75,96,72,0.81,GA,1711737178
241,utrik,11.2278,169.8474,27.12,71,100,7.66,MH,1711737178
242,caleta de carquin,-11.0925,-77.6267,25.8,73,37,5.06,PE,1711737179
243,mercedes,-34.6515,-59.4307,28.77,40,0,3.55,AR,1711736938
244,guerrero negro,27.9769,-114.0611,19.27,59,93,6.13,MX,1711737075
245,cidreira,-30.1811,-50.2056,25.14,78,77,6.38,BR,1711737177
246,geraldton,-28.7667,114.6,15.23,94,82,2.57,AU,1711737112
247,mizdah,31.4451,12.9801,21.9,15,0,6.91,LY,1711737181
248,kaedi,16.1465,-13.5047,33.57,16,100,4.83,MR,1711737181
249,port douglas,-16.4833,145.4667,26.39,87,96,7.02,AU,1711737085
250,kedrovyy,56.1667,91.8167,-0.77,98,100,5.36,RU,1711737182
251,voss,60.623,6.4229,4.33,94,92,2.04,NO,1711737182
252,nar'yan-mar,67.6713,53.087,-3.83,91,100,6.71,RU,1711737183
253,arkalyk,50.2486,66.9114,-1.46,98,100,4.6,KZ,1711737184
254,qaqortoq,60.7167,-46.0333,-0.14,67,3,1.91,GL,1711736967
255,kangasniemi,61.9936,26.6479,5.01,100,100,1.32,FI,1711737184
256,bengkulu,-3.8004,102.2655,25.11,91,100,2.75,ID,1711737185
257,luau,-10.7073,22.2247,19.68,92,98,1.46,AO,1711737185
258,broken hill,-31.95,141.4333,22.52,72,0,2.57,AU,1711737038
259,vila franca do campo,37.7167,-25.4333,14.23,90,99,12.18,PT,1711737186
260,bandarbeyla,9.4942,50.8122,27.1,70,12,5.32,SO,1711737187
261,el porvenir,13.7617,-87.3458,27.63,29,59,3.55,HN,1711737187
262,helena valley southeast,46.6153,-111.9216,7.95,56,20,2.06,US,1711737187
263,walvis bay,-22.9575,14.5053,14.53,94,0,4.12,NA,1711737188
264,bereket,39.2446,55.5154,14.54,38,0,3.44,TM,1711737189
265,port lincoln,-34.7333,135.8667,18.11,54,2,1.53,AU,1711737056
266,nemuro,43.3236,145.575,2.13,99,100,6.04,JP,1711737190
267,sur,22.5667,59.5289,24.47,64,0,1.97,OM,1711737190
268,maracaju,-21.6144,-55.1683,31.99,41,98,3.32,BR,1711736923
269,ghadamis,30.1337,9.5007,26.58,8,0,4.76,LY,1711737191
270,san blas,21.5167,-105.2667,35.94,46,0,3.33,MX,1711737192
271,glace bay,46.1969,-59.957,12.66,99,100,5.66,CA,1711737035
272,edgewater,28.9889,-80.9023,25.61,65,40,5.14,US,1711737193
273,buala,-8.145,159.5921,26.85,82,95,1.08,SB,1711737194
274,ocean shores,46.9737,-124.1563,11.08,86,75,3.6,US,1711737194
275,naigarhi,24.7833,81.7833,29.97,23,56,1.34,IN,1711737195
276,san luis de la loma,17.2706,-100.8939,31.01,43,100,4.15,MX,1711737195
277,roma,43.2128,-75.4557,5.28,53,100,9.26,US,1711736949
278,port-gentil,-0.7193,8.7815,28.98,84,75,2.06,GA,1711737197
279,kushiro,42.975,144.3747,3.53,100,100,1.54,JP,1711737198
280,kosh-agach,50.0,88.6667,-5.39,86,100,1.79,RU,1711737198
281,bhitarwar,25.8,78.1167,30.98,22,100,3.11,IN,1711737199
282,new norfolk,-42.7826,147.0587,13.72,98,53,0.87,AU,1711737199
283,edd,13.9297,41.6925,31.33,50,6,10.03,ER,1711737200
284,pemangkat,1.1667,108.9667,26.25,86,39,0.91,ID,1711737200
285,gebeit,21.0667,36.3167,24.65,61,100,2.29,SD,1711737068
286,laojunmiao,39.8333,97.7333,6.83,35,2,2.14,CN,1711737201
287,katsuura,35.1333,140.3,16.57,67,0,10.21,JP,1711737201
288,alghero,40.5589,8.3181,17.05,63,0,3.09,IT,1711737202
289,trairi,-3.2778,-39.2689,28.3,86,19,4.54,BR,1711737167
290,maloyaroslavets,55.0146,36.4719,7.17,99,96,3.46,RU,1711737086
291,totness,5.8833,-56.3167,28.48,75,78,4.2,SR,1711737203
292,shchyolkino,45.4291,35.8223,12.53,80,0,8.39,UA,1711737204
293,talcahuano,-36.7167,-73.1167,22.82,60,20,7.72,CL,1711736923
294,grojec,51.8625,20.8676,14.64,55,57,3.82,PL,1711736998
295,ciudad mante,22.7333,-98.9667,29.08,30,0,5.19,MX,1711737205
296,smithers,54.7804,-127.1743,1.18,44,0,2.57,CA,1711737019
297,seven pagodas,12.6264,80.1722,29.03,71,1,4.32,IN,1711737207
298,chibougamau,49.9168,-74.3659,-0.21,59,100,4.63,CA,1711737150
299,mata-utu,-13.2816,-176.1745,29.08,74,96,3.48,WF,1711736911
300,rach gia,10.0167,105.0833,27.25,78,100,2.77,VN,1711737208
301,tofol,5.3248,163.0078,28.06,82,100,9.78,FM,1711737208
302,talnakh,69.4865,88.3972,-12.0,94,100,6.35,RU,1711737066
303,taroa,8.7058,171.2275,27.42,81,100,8.42,MH,1711737209
304,ad dilam,23.9915,47.1627,26.23,18,96,4.82,SA,1711737210
305,porto novo,6.4965,2.6036,30.9,75,74,3.8,BJ,1711736910
306,humaita,-7.5061,-63.0208,29.06,88,92,1.64,BR,1711737210
307,sultanah,24.4926,39.5857,18.25,77,75,1.03,SA,1711737211
308,iwanai,42.9744,140.5089,3.14,99,100,2.39,JP,1711737212
309,astrakhan,46.3497,48.0408,4.93,65,0,3.0,RU,1711737212
310,codrington,-38.2667,141.9667,11.14,89,6,2.1,AU,1711737066
311,ayr,55.4627,-4.6339,8.99,71,20,4.63,GB,1711737213
312,hotan,37.0997,79.9269,15.64,23,100,0.63,CN,1711737213
313,shache,38.4167,77.2406,17.62,20,100,2.18,CN,1711737214
314,afaahiti,-17.75,-149.2833,27.93,78,86,9.37,PF,1711736994
315,zlynka,52.4267,31.7378,7.02,89,18,2.46,RU,1711737214
316,chilecito,-29.1619,-67.4974,30.3,33,0,2.05,AR,1711737092
317,okoneshnikovo,54.8377,75.0834,-2.0,93,41,2.98,RU,1711737215
318,berlin,52.5244,13.4105,14.48,71,0,4.63,DE,1711737018
319,westport,41.1415,-73.3579,13.27,31,0,10.29,US,1711736944
320,lihue,21.9789,-159.3672,23.58,79,100,7.2,US,1711737066
321,ust'-uda,54.1742,103.0304,-8.63,84,100,0.9,RU,1711737216
322,vadso,70.0744,29.7487,-1.51,74,20,8.75,NO,1711737014
323,udachny,66.4167,112.4,-30.3,98,54,2.91,RU,1711737028
324,turpan,42.9333,89.1667,20.64,22,68,2.84,CN,1711737217
325,mareno di piave,45.8475,12.3547,15.37,93,100,2.95,IT,1711737217
326,acajutla,13.5928,-89.8275,32.21,49,0,5.09,SV,1711737218
327,ishigaki,24.3448,124.1572,20.07,100,40,0.51,JP,1711737218
328,calatayud,41.3535,-1.6432,8.71,85,100,7.83,ES,1711737219
329,port alfred,-33.5906,26.891,20.16,75,100,4.94,ZA,1711737006
330,nguigmi,14.2495,13.1092,32.33,16,22,2.48,NE,1711737219
331,neyshabur,36.2133,58.7958,8.37,43,14,3.62,IR,1711737220
332,taro,-8.3862,115.28,24.0,97,45,0.67,ID,1711737220
333,pauini,-7.7136,-66.9764,28.84,84,100,0.33,BR,1711737220
334,olinda,-8.0089,-34.8553,29.85,74,75,7.72,BR,1711736799
335,roccella ionica,38.322,16.4009,15.19,81,94,1.55,IT,1711737221
336,nagqu,31.5,92.0,-2.62,65,2,1.23,CN,1711737221
337,goz beida,13.95,20.55,31.97,9,5,3.14,TD,1711737222
338,lautoka,-17.6167,177.4667,23.92,94,75,0.0,FJ,1711737222
339,irituia,-1.7711,-47.4381,25.53,96,100,1.39,BR,1711737223
340,bosansko grahovo,44.1794,16.3639,9.8,82,100,3.35,BA,1711737224
341,severo-yeniseyskiy,60.3725,93.0408,-6.9,87,100,5.81,RU,1711737068
342,gadzhiyevo,69.2551,33.3362,-8.93,92,80,1.85,RU,1711737059
343,port hedland,-20.3167,118.5667,26.03,78,0,3.6,AU,1711737224
344,chishmy,54.5765,55.3764,-4.87,97,37,1.79,RU,1711737225
345,rock springs,41.5875,-109.2029,5.03,63,100,2.57,US,1711737073
346,kokstad,-30.5472,29.4241,13.76,96,100,1.59,ZA,1711737226
347,haifa,32.8156,34.9892,19.6,86,100,0.45,IL,1711737121
348,waynesboro,38.0685,-78.8895,17.91,35,40,7.72,US,1711737083
349,masterton,-40.9597,175.6575,9.5,70,76,3.27,NZ,1711737227
350,praia,14.9215,-23.5087,24.3,53,20,9.77,CV,1711737227
351,ixtapa,20.7,-105.2,23.57,73,20,4.12,MX,1711737228
352,dwarka,22.2394,68.9678,24.44,78,0,4.15,IN,1711737228
353,lorengau,-2.0226,147.2712,27.61,80,100,1.88,PG,1711737229
354,vilyuysk,63.7553,121.6247,-32.78,100,68,1.34,RU,1711737201
355,flexeiras,-9.1975,-35.7808,29.87,58,26,5.17,BR,1711737230
356,bayan,46.0833,127.4,-1.35,55,100,5.69,CN,1711737230
357,hualien city,23.9769,121.6044,22.67,77,100,0.85,TW,1711737231
358,ta`u,-14.2336,-169.5144,28.87,77,100,4.45,AS,1711737067
359,axim,4.8699,-2.2405,28.16,83,100,3.72,GH,1711737232
360,badger,64.8,-147.5333,-0.36,85,20,4.63,US,1711736921
361,vernon,50.2581,-119.2691,9.23,70,50,1.54,CA,1711737020
362,palamos,41.8484,3.1291,16.98,85,70,0.89,ES,1711737233
363,tolanaro,-25.0319,46.9987,25.04,83,20,8.23,MG,1711737055
364,buurhakaba,2.8026,44.0781,28.31,60,11,7.69,SO,1711737233
365,kolda,12.8833,-14.95,39.17,16,0,3.09,SN,1711737234
366,yigo village,13.5361,144.8886,26.16,83,0,5.14,GU,1711737234
367,donji vakuf,44.1436,17.4,11.82,84,100,2.8,BA,1711737235
368,hovd,48.0056,91.6419,5.82,49,80,2.47,MN,1711737188
369,piet retief,-27.0071,30.8132,15.87,97,100,1.57,ZA,1711737236
370,jiwani,25.05,61.7417,23.66,69,0,5.67,PK,1711737236
371,susuman,62.7833,148.1667,-11.12,94,100,2.68,RU,1711737034
372,flin flon,54.7682,-101.865,-4.09,58,100,2.06,CA,1711737237
373,yaren,-0.5472,166.916,27.99,82,22,6.22,NR,1711737237
374,kununurra,-15.7667,128.7333,25.99,94,99,1.54,AU,1711737237
375,shahdad kot,27.8477,67.9055,25.19,22,0,1.13,PK,1711737238
376,ponta delgada,37.7333,-25.6667,14.4,94,40,16.98,PT,1711737238
377,palopo,-2.9996,120.1921,25.2,87,96,1.36,ID,1711737239
378,sihanoukville,10.6093,103.5296,25.97,94,40,0.0,KH,1711737239
379,aioun,16.6614,-9.6149,35.27,14,100,3.79,MR,1711737240
380,yeraliyev,43.2,51.65,9.78,40,93,1.46,KZ,1711737240
381,nikolayevsk-on-amure,53.1406,140.73,-1.57,96,100,2.47,RU,1711737240
382,picos,-7.0769,-41.4669,30.55,65,100,0.92,BR,1711737241
383,san andres,12.5847,-81.7006,31.01,55,20,6.17,CO,1711737241
384,east ballina,-28.8667,153.5833,20.44,84,100,4.34,AU,1711737242
385,chizhou,30.6578,117.4831,16.53,79,100,1.99,CN,1711737242
386,sunbury,-37.5833,144.7333,13.91,88,0,3.6,AU,1711737242
387,azemmour,33.2895,-8.3425,14.11,75,100,12.25,MA,1711737243
388,natal,-5.795,-35.2094,31.12,74,40,6.17,BR,1711736566
389,solnechnyy,50.7214,136.6319,-1.09,99,100,0.87,RU,1711737243
390,huntingburg,38.2989,-86.955,21.67,35,0,5.14,US,1711737244
391,lyantor,61.6195,72.1555,-8.24,92,100,6.16,RU,1711737244
392,nuuk,64.1835,-51.7216,-1.66,69,0,1.54,GL,1711737192
393,akdagmadeni,39.6603,35.8836,8.65,77,12,1.41,TR,1711737245
394,kristiansund,63.1115,7.732,7.03,87,75,2.06,NO,1711737245
395,weno,7.4515,151.8468,27.97,83,40,3.6,FM,1711737246
396,tual,-5.6667,132.75,27.13,83,100,1.65,ID,1711737029
397,kourou,5.1552,-52.6478,24.03,96,100,2.28,GF,1711737247
398,waingapu,-9.6567,120.2641,25.68,85,100,2.05,ID,1711737247
399,sangin,32.0728,64.8359,16.99,49,4,5.68,AF,1711737248
400,zhelezinka,53.54,75.3072,1.25,91,100,3.45,KZ,1711737248
401,ambato boeny,-16.4667,46.7167,24.22,91,100,0.26,MG,1711737249
402,glendive,47.1053,-104.7125,1.79,86,100,5.66,US,1711737250
403,bakanas,44.8081,76.2772,11.65,62,100,5.95,KZ,1711737250
404,juneau,58.3019,-134.4197,6.34,89,40,0.0,US,1711737251
405,tlahualilo de zaragoza,26.1167,-103.45,28.04,15,38,2.23,MX,1711737251
406,thai binh,20.45,106.3333,21.94,93,13,1.65,VN,1711737225
407,tazacorte,28.629,-17.9293,19.54,75,75,3.09,ES,1711737039
408,katsuren-haebaru,26.3369,127.8719,20.43,90,75,2.06,JP,1711737252
409,verkhniy rohachyk,47.2505,34.338,10.87,71,1,9.44,UA,1711737252
410,mikomeseng,2.1361,10.6132,23.05,96,100,1.35,GQ,1711737253
411,igrim,63.1906,64.4162,-9.31,93,100,4.01,RU,1711737173
412,shingu,33.7333,135.9833,12.8,90,0,2.74,JP,1711737254
413,touros,-5.1989,-35.4608,29.84,72,24,5.41,BR,1711737046
414,kisi,9.0833,3.85,34.39,22,45,1.07,NG,1711737254
415,gorontalo,0.5412,123.0595,24.32,96,82,1.43,ID,1711737255
416,isangel,-19.55,169.2667,23.06,88,40,0.0,VU,1711737236
417,yabelo,4.8833,38.0833,19.56,67,97,2.05,ET,1711737256
418,platteville,42.7342,-90.4785,11.25,45,0,6.69,US,1711737001
419,joutseno,61.118,28.5076,5.03,86,100,0.98,FI,1711737257
420,barra,-11.0894,-43.1417,34.23,38,34,2.16,BR,1711737257
421,la'ie,21.6477,-157.9253,24.69,78,9,3.13,US,1711737230
422,ilhabela,-23.7781,-45.3581,24.77,84,97,0.45,BR,1711737258
423,tiverton,50.9,-3.4833,10.22,81,20,6.69,GB,1711737054
424,ituango,7.1712,-75.764,24.25,67,100,2.21,CO,1711737259
425,mhamid,29.82,-5.72,19.72,23,0,11.98,MA,1711737260
426,dubbo,-32.25,148.6167,15.07,88,0,3.09,AU,1711737060
427,tromso,69.6496,18.957,-0.99,55,0,2.57,NO,1711737261
428,kirensk,57.7853,108.1119,-19.46,100,34,1.34,RU,1711737261
429,kalashnikovo,57.2824,35.2262,6.81,90,100,5.31,RU,1711737262
430,greymouth,-42.4667,171.2,8.89,72,0,2.35,NZ,1711737263
431,cannonvale,-20.2833,148.7,25.66,72,97,8.99,AU,1711737263
432,el granada,37.5027,-122.4694,13.94,84,75,7.2,US,1711737263
433,matthew town,20.95,-73.6667,26.0,78,100,4.81,BS,1711737264
434,kemijarvi,66.7131,27.4306,-7.19,94,72,2.58,FI,1711737264
435,maymana,35.9214,64.7836,4.21,92,100,2.92,AF,1711737265
436,nkhotakota,-12.9274,34.2961,23.66,84,96,2.21,MW,1711737265
437,el calafate,-50.3408,-72.2768,6.13,62,48,7.02,AR,1711737265
438,newman,37.3138,-121.0208,12.81,77,100,5.36,US,1711736975
439,tsiombe,-25.3,45.4833,22.99,90,100,2.46,MG,1711737027
440,arrifes,37.7667,-25.7,13.14,94,40,16.98,PT,1711737266
441,orchard homes,46.8633,-114.0484,9.66,57,100,1.34,US,1711737267
442,khailar,25.35,78.5333,31.81,22,100,3.64,IN,1711737267
443,aktau,43.65,51.2,6.32,45,33,3.0,KZ,1711737268
444,kushk,33.2957,61.9522,6.82,66,6,10.96,AF,1711737268
445,xiaoweizhai,26.1903,107.5125,16.53,97,74,1.79,CN,1711737269
446,happy valley-goose bay,53.3168,-60.3315,3.17,87,75,8.75,CA,1711737270
447,kani keli,-12.9536,45.1033,27.59,71,100,2.43,YT,1711737270
448,san julian,21.0167,-102.1667,27.26,9,19,4.5,MX,1711737271
449,uzice,43.8586,19.8488,14.16,62,48,1.94,RS,1711737271
450,gemena,3.25,19.7667,28.58,45,100,0.79,CD,1711737062
451,malax,62.9423,21.5731,4.01,96,100,2.06,FI,1711737272
452,colotlan,22.1,-103.2667,28.08,7,2,6.75,MX,1711737273
453,marsa alam,25.0757,34.8918,24.08,48,0,3.75,EG,1711737011
454,makoua,0.0069,15.6333,26.92,73,100,0.59,CG,1711737274
455,inarajan village,13.2736,144.7484,27.08,88,15,7.4,GU,1711737274
456,obo,5.3998,26.4869,29.82,28,83,1.4,CF,1711737275
457,sandnessjoen,66.0217,12.6316,1.29,82,100,5.72,NO,1711736796
458,mount pearl,47.5166,-52.7813,14.29,87,100,4.63,CA,1711737276
459,byron bay,-28.65,153.6167,20.39,87,99,4.27,AU,1711737162
460,kindu,-2.95,25.95,23.88,91,100,2.25,CD,1711737277
461,afif,23.9065,42.9172,18.7,60,98,6.76,SA,1711737277
462,ataq,14.5377,46.8319,21.99,71,26,5.39,YE,1711737278
463,khairpur nathan shah,27.0936,67.7337,26.38,34,0,4.98,PK,1711737278
464,manaure,11.7751,-72.4445,27.98,63,100,7.97,CO,1711737279
465,tulun,54.5611,100.5792,-6.38,95,100,3.14,RU,1711737279
466,cuito,-12.3833,16.9333,17.43,90,100,0.48,AO,1711737280
467,rakops,-21.0167,24.3333,26.34,37,92,2.47,BW,1711737280
468,nenjiang,49.1833,125.2167,-2.05,70,78,2.67,CN,1711737013
469,arish,31.1316,33.7984,18.35,84,5,2.89,EG,1711737281
470,pavlovsk,50.4578,40.1081,14.41,80,100,5.92,RU,1711737163
471,tianpeng,30.9866,103.9393,19.26,55,15,2.4,CN,1711737282
472,upington,-28.4478,21.2561,25.21,44,20,1.54,ZA,1711737034
473,churapcha,62.0025,132.4325,-27.17,99,49,2.25,RU,1711737283
474,fisterra,42.9049,-9.2629,12.64,57,9,3.03,ES,1711737283
475,rumuruti,0.267,36.5389,18.37,76,95,4.8,KE,1711737284
476,opuwo,-18.0607,13.84,23.55,64,95,3.28,NA,1711737284
477,kayangel,8.0823,134.7173,28.29,79,12,7.93,PW,1711737040
478,kaitong,44.8135,123.15,-3.81,44,41,6.59,CN,1711737285
479,port macquarie,-31.4333,152.9167,18.83,87,77,0.66,AU,1711737091
480,hammerfest,70.6634,23.6821,-2.75,86,100,3.6,NO,1711737286
481,kanniyakumari,8.0833,77.5667,27.96,79,28,0.33,IN,1711737287
482,yanaul,56.2719,54.9309,-5.93,98,90,2.28,RU,1711737287
483,port augusta,-32.5,137.7667,22.98,45,17,2.58,AU,1711736951
484,turgen,43.4006,77.5933,7.07,75,100,3.61,KZ,1711737288
485,withernsea,53.7311,0.0335,11.95,83,6,8.47,GB,1711737288
486,peace river,56.2501,-117.286,-1.83,50,20,1.03,CA,1711737058
487,biltine,14.5333,20.9167,32.75,9,6,5.39,TD,1711737289
488,palmer,42.1584,-72.3287,11.96,39,75,9.77,US,1711737088
489,sierra grande,-41.606,-65.3557,24.2,20,17,6.01,AR,1711737291
490,nejo,9.5,35.5,21.04,28,51,1.81,ET,1711737292
491,massakory,12.996,15.7293,36.14,10,5,4.19,TD,1711737292
492,rio grande,-32.035,-52.0986,29.06,71,18,3.29,BR,1711737133
493,nikel,69.4128,30.222,-1.9,95,13,0.18,RU,1711737293
494,pradopolis,-21.3594,-48.0656,30.1,92,100,0.89,BR,1711737294
495,golaghat,26.5167,93.9667,24.24,64,100,2.39,IN,1711737294
496,ostersund,63.1792,14.6357,-0.22,100,100,3.6,SE,1711737295
497,uray,60.1247,64.7758,-15.07,99,73,1.34,RU,1711737173
498,kotido,2.9806,34.1331,27.01,46,16,5.65,UG,1711737296
499,prince rupert,54.3161,-130.3201,9.05,53,0,3.6,CA,1711737297
500,port saint john's,-31.6229,29.5448,21.36,80,100,2.57,ZA,1711737297
501,una,20.8167,71.0333,26.32,51,0,5.11,IN,1711737297
502,djamaa,33.5339,5.9931,24.41,11,0,4.06,DZ,1711737298
503,dali,25.7,100.1833,9.92,89,12,2.1,CN,1711737298
504,hanceville,34.0607,-86.7675,22.48,34,5,2.59,US,1711737286
505,brookings,44.3114,-96.7984,7.47,65,0,5.14,US,1711737299
506,boa vista,2.8197,-60.6733,31.99,55,40,3.09,BR,1711737108
507,karratha,-20.7377,116.8463,28.52,52,0,3.19,AU,1711737138
508,saint croix,17.7397,-64.7388,30.25,65,20,5.66,VI,1711737301
509,haimen,23.1935,116.6142,21.94,90,100,1.34,CN,1711737302
510,dossor,47.5272,52.9811,4.22,56,0,2.63,KZ,1711737302
511,mulayjah,27.271,48.4242,23.24,33,28,0.87,SA,1711737303
512,broome,42.2506,-75.833,4.74,66,100,7.2,US,1711737304
513,guatrache,-37.6678,-63.5302,35.4,25,0,5.89,AR,1711737304
514,constitucion,-35.3333,-72.4167,20.86,66,23,7.39,CL,1711737056
515,antsohihy,-14.8796,47.9875,23.83,96,99,1.5,MG,1711737305
516,port pirie,-33.1833,138.0167,22.24,43,1,1.08,AU,1711737306
517,lata,40.1629,-8.3327,10.6,92,100,2.04,PT,1711737175
518,troitsko-pechorsk,62.7084,56.1964,-1.84,84,100,4.02,RU,1711737307
519,fauske,67.2588,15.3918,2.65,79,100,4.43,NO,1711737307
520,chepo,9.1667,-79.1,33.88,41,78,7.01,PA,1711737308
521,pavlovka,52.6897,47.1405,0.0,94,95,2.57,RU,1711737308
522,yuzhno-kurilsk,44.0306,145.8556,1.32,74,100,2.56,RU,1711737309
523,puerto santa,-8.9906,-78.6456,24.84,75,10,4.63,PE,1711737309
524,qarqaraly,49.4058,75.4742,1.4,96,100,5.98,KZ,1711737257
525,eirunepe,-6.6603,-69.8736,32.97,53,97,1.12,BR,1711737160
526,cockburn town,21.4612,-71.1419,25.98,69,40,4.12,TC,1711737310
527,derzhavinsk,51.1,66.3167,-4.05,94,99,4.5,KZ,1711737311
528,hit,33.6416,42.8251,22.94,33,100,3.17,IQ,1711737311
529,the pas,53.8251,-101.2541,-3.99,68,100,5.66,CA,1711737312
530,al hayy,32.1735,46.0433,22.68,31,68,4.39,IQ,1711737313
531,jian'ou,27.0469,118.3253,16.8,67,100,0.5,CN,1711737313
532,santa cruz,-17.8,-63.1667,34.03,43,75,3.09,BO,1711737049
533,richards bay,-28.783,32.0377,21.95,85,70,2.29,ZA,1711737314
534,illizi,26.4833,8.4667,30.89,5,2,3.0,DZ,1711737315
535,diplo,24.4667,69.584,24.17,42,0,5.2,PK,1711737315
536,sarh,9.1429,18.3923,34.75,11,100,1.44,TD,1711737316
537,nimaparha,20.0667,86.0167,27.22,71,3,7.64,IN,1711737316
538,gbarnga,6.9956,-9.4722,28.13,66,92,0.71,LR,1711737316
539,ceeldheer,3.8488,47.1806,27.89,74,100,7.6,SO,1711737317
540,hono,57.6897,11.6497,7.38,95,100,5.72,SE,1711737317
541,prince george,53.9166,-122.753,2.92,42,0,3.09,CA,1711737315
542,beloyarskiy,63.7119,66.6722,-16.67,99,96,1.34,RU,1711737318
543,aras-asan,8.8908,126.3033,24.49,84,21,1.15,PH,1711737318
544,togur,58.3631,82.8265,1.75,93,100,2.68,RU,1711737319
545,arteche,12.2645,125.4048,24.29,83,5,2.63,PH,1711737319
546,ulaangom,49.9811,92.0667,-8.14,86,87,1.77,MN,1711737320
547,tsetserleg,47.475,101.4542,1.39,49,100,3.03,MN,1711737320
548,hilo,19.7297,-155.09,21.73,88,75,3.09,US,1711736858
549,hobyo,5.3505,48.5268,28.1,69,21,7.54,SO,1711737321
550,medicine hat,50.0501,-110.6683,-0.99,62,75,3.09,CA,1711737061
551,shetpe,44.1667,52.1167,5.97,44,10,2.12,KZ,1711737321
552,fort bragg,35.139,-79.006,21.22,29,40,7.2,US,1711737133
553,al jawf,29.5,38.75,16.42,66,100,4.0,SA,1711737322
554,den burg,53.0542,4.7972,11.09,77,100,3.09,NL,1711737323
555,macapa,0.0389,-51.0664,27.99,78,100,1.03,BR,1711737302
556,ugoofaaru,5.6667,73.0,29.14,75,24,4.48,MV,1711737324
557,kasimov,54.9411,41.3953,3.21,99,100,2.7,RU,1711737188
558,yamada,39.4667,141.95,10.33,75,11,5.57,JP,1711737324
559,tazovsky,67.4667,78.7,-6.5,96,100,5.04,RU,1711737018
560,jiayuguan,39.8167,98.3,8.7,34,1,1.65,CN,1711737325
561,fuglafjordur,62.244,-6.814,4.26,98,100,16.05,FO,1711737326
562,ambodifotatra,-16.9833,49.85,25.79,87,100,8.61,MG,1711737326
563,dudinka,69.4058,86.1778,-11.29,94,100,7.15,RU,1711737127
564,taoudenni,22.6783,-3.9836,31.03,12,99,4.63,ML,1711737327
565,arkadelphia,34.1209,-93.0538,24.14,53,0,6.17,US,1711737039
566,bogdanovich,56.7803,62.0494,-2.77,92,7,3.55,RU,1711737328
567,coyhaique,-45.5752,-72.0662,8.97,76,75,4.63,CL,1711737328
568,ondjiva,-17.0667,15.7333,27.02,57,0,2.06,AO,1711737329
569,gobabis,-22.45,18.9667,22.47,52,77,3.3,NA,1711737329
570,hadibu,12.65,54.0333,26.59,66,100,4.14,YE,1711737330
571,al fuwayliq,26.4432,43.2534,20.02,41,100,4.4,SA,1711737331
572,acapulco de juarez,16.8634,-99.8901,25.9,73,0,5.66,MX,1711737155
573,chui,-33.6971,-53.4616,25.73,68,43,3.62,UY,1711737229
574,andovoranto,-18.95,49.1,23.43,93,28,1.02,MG,1711737332
575,pimentel,-6.8367,-79.9342,30.16,51,0,7.2,PE,1711737332
576,new castle,41.0037,-80.347,11.4,37,0,7.2,US,1711737034
577,burley,42.5357,-113.7928,8.44,44,0,3.09,US,1711737333
578,tarawa,1.419,172.984,28.01,82,61,7.06,KI,1711737334
579,marsh harbour,26.5412,-77.0636,21.33,56,0,8.11,BS,1711737334
580,antalaha,-14.9003,50.2788,24.38,94,100,1.95,MG,1711737335
581,beni,0.5,29.4667,19.73,80,6,1.53,CD,1711737229
582,boguchany,58.3814,97.4531,-5.08,78,100,3.58,RU,1711737171
583,mandera,3.9366,41.867,34.72,32,90,3.55,KE,1711737337
